[{"Antalya'daki": [{"formatted_address": "Altınkum Mah. Akdeniz Blv. Konyaaltı Kent Meydanı No:176 07070 Konyaaltı Türkiye", "lng": 30.63768240400378, "lat": 36.86199457624772}, {"formatted_address": "Shemall (Fener Mah. Tekelioğlu Cad. No:3) Muratpaşa Türkiye", "lng": 30.746442021830365, "lat": 36.856890506244746}, {"formatted_address": "Tahılpazarı Mah. Şarampol Cad. No:84 07050 Muratpaşa Türkiye", "lng": 30.703960097631008, "lat": 36.892865335991765}, {"formatted_address": "Dumlupınar Blv. Atatürk Kültür Parkı No:201 07030 Muratpaşa Türkiye", "lng": 30.663399696350098, "lat": 36.88082207226148}, {"formatted_address": "Fener Mah. Tekelioğlu Cad. No:55 07230 Muratpaşa Türkiye", "lng": 30.756588837258764, "lat": 36.85230793587112}, {"formatted_address": "Haşimişcan Mah. Atatürk Cad. Günertem Ap. 81/B (Işıklar) Muratpaşa Türkiye", "lng": 30.70811462340826, "lat": 36.88158375140642}, {"formatted_address": "Lara Şirinyalı 07160 Muratpaşa Türkiye", "lng": 30.73010885048444, "lat": 36.85907145898769}, {"formatted_address": "2048 Sk. No:5/1 07230 Muratpaşa Türkiye", "lng": 30.767082736355427, "lat": 36.84830821523085}, {"formatted_address": "Erasta Antalya (Fabrikalar Mah. Dumlupınar Blv. No:49) 07090 Kepez Türkiye", "lng": 30.664659323632993, "lat": 36.90729132118368}, {"formatted_address": "Şirinyalı Mah. Eski Lara Cad 139/A Antalya Türkiye", "lng": 30.7394263171724, "lat": 36.85707267432308}]},
{"Almanya'da": [{"formatted_address": "Sultanahmet Fatih Türkiye", "lng": 28.976518535657547, "lat": 41.007192028941645}, {"formatted_address": "Zorlu Center İstanbul Türkiye", "lng": 29.01679674765807, "lat": 41.0667675138047}, {"formatted_address": "Kentpark (Mustafa Kemal Mah. Dumlupınar Blv. No:164) Ankara Türkiye", "lng": 32.776038723994176, "lat": 39.90980942424055}, {"formatted_address": "Konya Yolu (Mevlana Bulvarı) Ankara Türkiye", "lng": 32.81240825216393, "lat": 39.891711523814294}, {"formatted_address": "5753 no:22 (karabağlar) İzmir Türkiye", "lng": 27.136353294331585, "lat": 38.384636122638796}, {"formatted_address": "sırakapılar mah. (saltak caddesi) Denizli Türkiye", "lng": 29.082466316332273, "lat": 37.780589697899316}, {"formatted_address": "Cumhuriyet Meydanı / Bölme 64420 Uşak Türkiye", "lng": 29.37225348504424, "lat": 38.621325867873}, {"formatted_address": "Türkiye", "lng": 35.24427, "lat": 39.034595}, {"formatted_address": "Üzengi Sokak, No: 1/A 34349 İstanbul Türkiye", "lng": 29.006787862918593, "lat": 41.0513462556155}, {"formatted_address": "Ören Mahallesi Burhaniye Türkiye", "lng": 26.933534718020955, "lat": 39.50057867632039}]},
{"Stockholmde": [{"formatted_address": "Arifiye Mah. İletişim Sok. No:11/C 26040 Eskişehir Türkiye", "lng": 30.5184699439269, "lat": 39.775740142914145}, {"formatted_address": "Klas Sinemasi Yani (Ankara Caddesi) 40100 Kırşehir Türkiye", "lng": 34.1611124893366, "lat": 39.14833801252979}, {"formatted_address": "Mimarsinan Mah. Nefi Cad. Batman Sok. No:1 Kayseri Türkiye", "lng": 35.513000256928585, "lat": 38.73347342104668}, {"formatted_address": "Uçhisar Türkiye", "lng": 34.806146070095146, "lat": 38.62829416541521}, {"formatted_address": "Kayseri Park (Alparlan Mah. Eşref Bitlis Blv.  No:10/201) 38030 Melikgazi Türkiye", "lng": 35.518464584029196, "lat": 38.72717527081883}, {"formatted_address": "Kuşdilli Mah. Terme Cad. No: 38/E 40200 Kırşehir Türkiye", "lng": 34.159080824044594, "lat": 39.14264062574636}, {"formatted_address": "Mimarsinan Mah. Nefi Cad. Batman Sok. No:1 Kayseri Türkiye", "lng": 35.512187527117504, "lat": 38.733312971739466}, {"formatted_address": "Cumhuriyet Mah. Millet Cad. No: 15 38350 Melikgazi Türkiye", "lng": 35.489759389207336, "lat": 38.719815764001616}, {"formatted_address": "Forum Kayseri (Hunat Mah. Sivas Cad. No:24/1) 38030 Melikgazi Türkiye", "lng": 35.496909899988616, "lat": 38.72291087891282}, {"formatted_address": "Mimarsinan Mah. Nefi Cad. Batman Sok. No:1 Kayseri Türkiye", "lng": 35.513112541327935, "lat": 38.73371137145816}]},
{"Türkiye": [{"formatted_address": "Taksim Meydanı 34400 Beyoğlu Türkiye", "lng": 28.986296320452443, "lat": 41.039362775881784}, {"formatted_address": "Seyrantepe (Ali Sami Yen Spor Kompleksi) 34396 Şişli Türkiye", "lng": 28.99088144302368, "lat": 41.103398674263026}, {"formatted_address": "Sütlüce Mh İmrahor Cd Beyoğlu 34445 İstanbul Türkiye", "lng": 28.949359198063334, "lat": 41.0589042953736}, {"formatted_address": "Zühtüpaşa Mah. Recep Peker Cad. 34200 Kadıköy Türkiye", "lng": 29.036929607391354, "lat": 40.98768134935173}, {"formatted_address": "Ilıca Çeşme Türkiye", "lng": 26.369637599710767, "lat": 38.307912095992265}, {"formatted_address": "Koyunbaba Mah. Kazım Karabekir Cad. No: 71 Muğla Türkiye", "lng": 27.244678467093994, "lat": 37.07245011559636}, {"formatted_address": "Türkiye", "lng": 35.0, "lat": 39.0}, {"formatted_address": "Yeşilköy Mah. 34149 İstanbul Türkiye", "lng": 28.817150614497073, "lat": 40.97973494536059}, {"formatted_address": "Hanlı Köy Mah. Hürriyet Cad. No:3 54100 Arifiye Türkiye", "lng": 30.37983503317119, "lat": 40.729812179643474}, {"formatted_address": "34912 İstanbul Türkiye", "lng": 29.31550853491538, "lat": 40.908082254424485}]},
{"Ankaraya": [{"formatted_address": "Özal Blv. Esenboğa 06750 Ankara Türkiye", "lng": 32.9916113917091, "lat": 40.11451636190995}, {"formatted_address": "Kavaklıdere 06680 Çankaya Türkiye", "lng": 32.860324439618054, "lat": 39.9020109794844}, {"formatted_address": "Yeşilköy Mah. 34149 İstanbul Türkiye", "lng": 28.817150614497073, "lat": 40.97973494536059}, {"formatted_address": "Kızılırmak Mah. Dumlupınar Blv. No:3 Söğütözü 06520 Ankara Türkiye", "lng": 32.81246334761091, "lat": 39.91113909875323}, {"formatted_address": "35410 Gaziemir Türkiye", "lng": 27.1498640561956, "lat": 38.29172390955387}, {"formatted_address": "34912 İstanbul Türkiye", "lng": 29.31550853491538, "lat": 40.908082254424485}, {"formatted_address": "Gazi Mah. Mevlana Blv. No:2 06560 Yenimahalle Türkiye", "lng": 32.83163474196867, "lat": 39.9505959261157}, {"formatted_address": "Altındağ, Gözcü Sk (Hisar Parkı Caddesi) 06000 Ankara Türkiye", "lng": 32.863700133699844, "lat": 39.93904374715638}, {"formatted_address": "Gaziosmanpaşa Mah. Şht. Ömer Sipahioğlu Sok. No:8 06680 Ankara Türkiye", "lng": 32.86486755787299, "lat": 39.89952744567026}, {"formatted_address": "Alay Cd. (Mücahit Asker Cad.) 42000 Meram Türkiye", "lng": 32.47675659880457, "lat": 37.866396466784394}]},
{"Hayvan Saldırıları": [{"formatted_address": "Niğde Türkiye", "lng": 34.72652200763735, "lat": 37.97470193141574}, {"formatted_address": "Türkiye", "lng": 35.588382886198204, "lat": 38.76008505628116}, {"formatted_address": "Türkiye", "lng": 34.70014063833079, "lat": 38.626382438512294}, {"formatted_address": "Türkiye", "lng": 34.186949754054424, "lat": 39.1049166915061}, {"formatted_address": "Türkiye", "lng": 34.13818569649576, "lat": 39.16397586071858}, {"formatted_address": "Karpuzatan Kayseri Türkiye", "lng": 35.45382082321906, "lat": 38.77217963974995}]},
{"Buz": [{"formatted_address": "Anadolu Harikalar Diyarı (Sivas Cad.) Kayseri Türkiye", "lng": 35.562016311641294, "lat": 38.766705716737285}, {"formatted_address": "Susanoğlu, Atakent, Silifke (Silifke Caddesi) Mersin Türkiye", "lng": 34.089754104933526, "lat": 36.418557034515125}, {"formatted_address": "Silivrikapı Mh. Hisaraltı Cd. No: 111 Silivrikapı/FATİH İstanbul Türkiye", "lng": 28.92254200247954, "lat": 41.003393679628076}, {"formatted_address": "Güzelçamlı Kuşadası Türkiye", "lng": 27.215831085355187, "lat": 37.711966274069866}, {"formatted_address": "Çiftlikköy (Çiftlikköy Kavşağı) Çeşme Türkiye", "lng": 26.2658131362691, "lat": 38.269678904804174}, {"formatted_address": "Ören Burhaniye Türkiye", "lng": 26.93385672484829, "lat": 39.49914323969289}, {"formatted_address": "Kazdağı Milli Parkı, Pınarbaşı Balıkesir Türkiye", "lng": 26.91857236547456, "lat": 39.6452218337198}, {"formatted_address": "Büyükdere Cad. No:185 Levent 34394 İstanbul Türkiye", "lng": 29.01164177032074, "lat": 41.07829572247343}, {"formatted_address": "Beyazevler Mah. Akçay Cad. No:101 35410 Gaziemir Türkiye", "lng": 27.13424502984581, "lat": 38.33833864925759}, {"formatted_address": "Akdeniz Cd. No:57 Bahçelievler 06500 Ankara Türkiye", "lng": 32.83036227062214, "lat": 39.91799731545256}]},
{"Chani": []},
{"Karşıyaka": [{"formatted_address": "Cemal Gürsel Cad. İzmir Türkiye", "lng": 27.11799144744873, "lat": 38.45331984821861}, {"formatted_address": "6521 Sok. No:21 Mavişehir (Cahar Dudayev Bulvarı) 35540 Karşıyaka Türkiye", "lng": 27.07611853241418, "lat": 38.47482853113453}, {"formatted_address": "Cemal Gürsel Cd Karşıyaka Türkiye", "lng": 27.104129791259766, "lat": 38.4514377951069}, {"formatted_address": "İzmir Türkiye", "lng": 27.093126689844844, "lat": 38.45656146673751}, {"formatted_address": "Yenidoğan Mah. Şaban Yılmaz Cad. Köseoğlu Apt. Kayseri Türkiye", "lng": 35.53865587231139, "lat": 38.697970408449635}, {"formatted_address": "Cemal Gürsel Cd 111 Karşıyaka Türkiye", "lng": 27.095133662223816, "lat": 38.45831881340713}, {"formatted_address": "Karşıyaka (Akbank Sokağı) İzmir Türkiye", "lng": 27.11893505010022, "lat": 38.45562292897156}, {"formatted_address": "karsiyaka (bostanli) izmir Türkiye", "lng": 35.17776, "lat": 38.94955}, {"formatted_address": "İzmir Türkiye", "lng": 35.25702981671202, "lat": 38.96472746379913}, {"formatted_address": "Türkiye", "lng": 34.37270742202989, "lat": 39.053796998333766}]},
{"Dolar'da Beklentiler": [{"formatted_address": "Erciyes Kayseri Türkiye", "lng": 35.52419585034314, "lat": 38.54123513084819}, {"formatted_address": "Forum Kayseri (Hunat Mah. Sivas Cad. No:24/1) 38030 Kayseri Türkiye", "lng": 35.49651949941822, "lat": 38.72380669453072}, {"formatted_address": "Dr Sami Yagız caddesi Selçuk mahallesi Kültür merkezi içerisi (Bor caddesi) 51100 Niğde Türkiye", "lng": 34.676456451416016, "lat": 37.97032001396948}, {"formatted_address": "Mehmet Cemileogulcuklu Cad.Dadaş Apt Altı Kayseri/Talas Türkiye", "lng": 35.543418293838144, "lat": 38.696304065782336}, {"formatted_address": "Türkiye", "lng": 35.56167966141268, "lat": 38.682333978509796}, {"formatted_address": "Talas Yenidogan Mahallesi Kayseri Türkiye", "lng": 35.54314570488161, "lat": 38.69700971448117}, {"formatted_address": "Alparslan Mah. Eşref Bitlis Bulvarı Kat: 2 No: 110/A Kayseri Park AVM 38030 Melikgazi Türkiye", "lng": 35.51754355430603, "lat": 38.72666846136067}, {"formatted_address": "Ali Dağı 38280 Talas Türkiye", "lng": 35.55038770736901, "lat": 38.677102818489296}, {"formatted_address": "Türkiye", "lng": 35.52622201263033, "lat": 38.73207240445102}, {"formatted_address": "Ali Dağı, Kayseri Kayseri Türkiye", "lng": 35.55225288565874, "lat": 38.6746417172749}]},
{"Karşıyaka": [{"formatted_address": "Cemal Gürsel Cad. İzmir Türkiye", "lng": 27.11799144744873, "lat": 38.45331984821861}, {"formatted_address": "6521 Sok. No:21 Mavişehir (Cahar Dudayev Bulvarı) 35540 Karşıyaka Türkiye", "lng": 27.07611853241418, "lat": 38.47482853113453}, {"formatted_address": "Cemal Gürsel Cd Karşıyaka Türkiye", "lng": 27.104129791259766, "lat": 38.4514377951069}, {"formatted_address": "İzmir Türkiye", "lng": 27.093126689844844, "lat": 38.45656146673751}, {"formatted_address": "Yenidoğan Mah. Şaban Yılmaz Cad. Köseoğlu Apt. Kayseri Türkiye", "lng": 35.53865587231139, "lat": 38.697970408449635}, {"formatted_address": "Cemal Gürsel Cd 111 Karşıyaka Türkiye", "lng": 27.095133662223816, "lat": 38.45831881340713}, {"formatted_address": "Karşıyaka (Akbank Sokağı) İzmir Türkiye", "lng": 27.11893505010022, "lat": 38.45562292897156}, {"formatted_address": "karsiyaka (bostanli) izmir Türkiye", "lng": 35.17776, "lat": 38.94955}, {"formatted_address": "İzmir Türkiye", "lng": 35.25702981671202, "lat": 38.96472746379913}, {"formatted_address": "Türkiye", "lng": 34.37270742202989, "lat": 39.053796998333766}]},
{"ÇokÖzlendi": []},
{"Bosna-Hersek": [{"formatted_address": "Kıvılcım AVM (Bosna Hersek Mah. Osmanlı Cad.) 42060 Selçuklu Türkiye", "lng": 32.52608945305364, "lat": 38.01060659365939}, {"formatted_address": "42250 Selçuklu Türkiye", "lng": 32.523934702816405, "lat": 38.010800380585394}, {"formatted_address": "Türkiye", "lng": 34.704605578878336, "lat": 38.62695284574559}, {"formatted_address": "Bosna Hersek Mh. Mesaj Cd. Beyaz Çarşı İş Merkezi No:42/D Selçuklu (Bosna 2 Şubeşi) Konya Türkiye", "lng": 32.52177438275561, "lat": 38.0127367915752}, {"formatted_address": "Rixos Hotel (Yeni İstanbul Cad.) 42250 Selçuklu Türkiye", "lng": 32.517232591701905, "lat": 38.005362726227695}, {"formatted_address": "Yeni İstanbul Cad. 42250 Selçuklu Türkiye", "lng": 32.51659164171991, "lat": 38.005673446316706}, {"formatted_address": "bahçeşehir 2.kısım Türkiye", "lng": 28.682621322127748, "lat": 41.07263692186263}, {"formatted_address": "Bosna Hersek Mh. Konya Türkiye", "lng": 32.51860288531598, "lat": 38.01534034891717}, {"formatted_address": "Bosna Hersek Mahallesi Site Bosna Altı (Osmanlı Cad.) 42250 Konya Türkiye", "lng": 32.52461135387421, "lat": 38.010593740804545}, {"formatted_address": "Gökkuşağı (Selçuk Üniversitesi Alaeddin Keykubat Yerleşkesi) 42250 Selçuklu Türkiye", "lng": 32.513414460679485, "lat": 38.02258495126275}]},
{"Şubat Cumartesi": [{"formatted_address": "Atatürk mah. (Barbaros cad. no:462) 35687 Yeni Foça Türkiye", "lng": 26.84754735173457, "lat": 38.74724439213548}, {"formatted_address": "Macun Mahallesi,  İmaj Center, 195 Cd (Eski 3. Cd) No 2 06015 Ankara Türkiye", "lng": 32.76704549789429, "lat": 39.94583828609923}, {"formatted_address": "1493 Sokak No:11 Konak Türkiye", "lng": 27.15118521391656, "lat": 38.43874164413333}, {"formatted_address": "Çayır Mahallesi İstasyon Caddesi 51100 Niğde Türkiye", "lng": 34.684411, "lat": 37.967364}, {"formatted_address": "Niğde Türkiye", "lng": 34.671833916969604, "lat": 37.969331956299754}, {"formatted_address": "Türkiye", "lng": 34.16649563772154, "lat": 39.15227956916302}, {"formatted_address": "Türkiye", "lng": 35.24158046295589, "lat": 39.18688050517615}, {"formatted_address": "Türkiye", "lng": 35.48912827425618, "lat": 38.77280288480517}, {"formatted_address": "Türkiye", "lng": 35.480051443347925, "lat": 38.725779880345144}, {"formatted_address": "Türkiye", "lng": 35.54099703037295, "lat": 38.69623672662036}]},
{"Hariciye": []},
{"Ürdün'de": [{"formatted_address": "Talimhane Beyoğlu İstanbul Türkiye", "lng": 28.98463072997117, "lat": 41.0386525424117}, {"formatted_address": "Mevlana Mah. Mehmet Akif Ersoy Cad. Aydın Sitesi 38280 Talas Türkiye", "lng": 35.55288350927413, "lat": 38.7007273625491}, {"formatted_address": "Osman Kavuncu Mah. Bahariye Cad. Melikgazi (Osman Kavuncu) 38130 Kayseri Türkiye", "lng": 35.42406508804099, "lat": 38.73711844808093}, {"formatted_address": "Türkiye", "lng": 35.00259266334495, "lat": 38.964376745282685}, {"formatted_address": "Mimarsinan Mah. Nefi Cad. Batman Sok. No:1 Kayseri Türkiye", "lng": 35.513000256928585, "lat": 38.73347342104668}, {"formatted_address": "Kayseri Park (Alparlan Mah. Eşref Bitlis Blv.  No:10/201) 38030 Melikgazi Türkiye", "lng": 35.518464584029196, "lat": 38.72717527081883}, {"formatted_address": "Kuşdilli Mah. Terme Cad. No: 38/E 40200 Kırşehir Türkiye", "lng": 34.159080824044594, "lat": 39.14264062574636}, {"formatted_address": "Kayseri Cd. Belediye ahşap büfeleri no:18 Nevşehir Türkiye", "lng": 34.71802600415669, "lat": 38.62639873275299}, {"formatted_address": "Cumhuriyet Mah. Millet Cad. No: 15 38350 Melikgazi Türkiye", "lng": 35.489759389207336, "lat": 38.719815764001616}, {"formatted_address": "Forum Kayseri (Hunat Mah. Sivas Cad. No:24/1) 38030 Melikgazi Türkiye", "lng": 35.496909899988616, "lat": 38.72291087891282}]},
{"Elazığ'a": [{"formatted_address": "Gazi Cad (Horasan Sokak) Elâzığ Türkiye", "lng": 39.22118603873555, "lat": 38.67539466347256}, {"formatted_address": "Cumhuriyet Mahallesi 155. Sokak No: 13 23270 Elâzığ Türkiye", "lng": 39.1825299606201, "lat": 38.67086441042266}, {"formatted_address": "Elâzığ Türkiye", "lng": 39.22709120460001, "lat": 38.68456203708617}, {"formatted_address": "İstasyon caddesi (İstasyon Caddesi) 23100 Elâzığ Türkiye", "lng": 39.22324474686414, "lat": 38.673269962089016}, {"formatted_address": "Ataşehir Mah. İmam Efendi Blv. Gakkoşlar Sok. No:3 (Elazığ Şubesi) 23040 Elâzığ Türkiye", "lng": 39.18136842997413, "lat": 38.66344094805894}, {"formatted_address": "Vali Fahri Bey Cad. (Tuncay Sok No : 13) Elâzığ Türkiye", "lng": 39.22092048832894, "lat": 38.67410991606383}, {"formatted_address": "İzzet Paşa Mah. Şehit Yüzbaşı Tahir Cad. No:4 Elâzığ Türkiye", "lng": 39.22266806842652, "lat": 38.67503444212732}, {"formatted_address": "Istasyon Cad. 23200 Elâzığ Türkiye", "lng": 39.222118721308966, "lat": 38.67291315909129}, {"formatted_address": "Akçakiraz Elâzığ Türkiye", "lng": 39.26798151308652, "lat": 38.60032402444886}, {"formatted_address": "Elâzığ Türkiye", "lng": 39.21974819770348, "lat": 38.67439947657044}]},
{"Şubat Pazartesi": [{"formatted_address": "Çayır Mahallesi İstasyon Caddesi 51100 Niğde Türkiye", "lng": 34.684411, "lat": 37.967364}, {"formatted_address": "Niğde Türkiye", "lng": 34.671833916969604, "lat": 37.969331956299754}, {"formatted_address": "Türkiye", "lng": 35.446629065115346, "lat": 38.73922594927452}, {"formatted_address": "Türkiye", "lng": 35.48847041192749, "lat": 38.66707394011333}, {"formatted_address": "Türkiye", "lng": 34.48911, "lat": 38.548176}, {"formatted_address": "Türkiye", "lng": 34.68531343583366, "lat": 37.97270134150352}, {"formatted_address": "Efendibey Mahallesi Niğde Türkiye", "lng": 34.68505963417834, "lat": 37.972142908679515}, {"formatted_address": "Türkiye", "lng": 34.686798430580275, "lat": 37.96520936696659}, {"formatted_address": "Türkiye", "lng": 34.68323440032196, "lat": 37.96695052139188}, {"formatted_address": "Türkiye", "lng": 34.690265118987476, "lat": 37.96501032938353}]},
{"Sesi RADYO'da": [{"formatted_address": "Avanos (Nevsehir Yolu Peri Bacalari) Nevşehir Türkiye", "lng": 34.831815657697966, "lat": 38.7017930670186}, {"formatted_address": "Güzelyalı Burgaz Mah. Marina Blv. 16940 Mudanya Türkiye", "lng": 28.930816249551512, "lat": 40.355652222156465}, {"formatted_address": "Alpaslan Mah. 38020 Melikgazi Türkiye", "lng": 35.51479697227478, "lat": 38.7262918109675}, {"formatted_address": "Yenidoğan Mah. Çimenli Cad. Talas Kayseri Türkiye", "lng": 35.537581482587555, "lat": 38.700992084348336}, {"formatted_address": "Türkiye", "lng": 35.52621132061403, "lat": 38.70738102290423}, {"formatted_address": "Tanpınar sokak (Sht Mehmet Erciyes caddesi) Kayseri Türkiye", "lng": 35.53741577942061, "lat": 38.77913589201428}]},
{"Marmara Üniversitesinde": [{"formatted_address": "Erciyes Kayseri Türkiye", "lng": 35.52419585034314, "lat": 38.54123513084819}, {"formatted_address": ". Kayseri Türkiye", "lng": 35.48579077131151, "lat": 38.721469542158886}, {"formatted_address": "Türkiye", "lng": 35.24983596801758, "lat": 38.959739685058594}, {"formatted_address": "Türkiye", "lng": 35.25027, "lat": 38.960117}, {"formatted_address": "Türkiye", "lng": 35.18390144038644, "lat": 38.61759173620072}, {"formatted_address": "Türkiye", "lng": 35.55347137431668, "lat": 38.695243997885804}, {"formatted_address": "Talas Türkiye", "lng": 35.56990314415106, "lat": 38.70831967188823}, {"formatted_address": "Ptt Cad. No: 8 50700 Nevşehir Türkiye", "lng": 34.732716, "lat": 38.374576}, {"formatted_address": "Türkiye", "lng": 35.24965, "lat": 38.959785}, {"formatted_address": "Türkiye", "lng": 35.522372795592446, "lat": 38.73893463190955}]},
{"El Bab'dan": [{"formatted_address": "Serceonu Mah. CAnkaya Cad. Erciyes Sitesi E Blok No:21/A Kayseri Türkiye", "lng": 35.493947087088046, "lat": 38.72724475600214}, {"formatted_address": "ibrahimpaşa köyü, tarihi köprü yanı no:44 Ürgüp (göreme, ortahisar, uçhisar yakınları) 50400 Nevşehir Türkiye", "lng": 34.84996318817139, "lat": 38.599214043518856}, {"formatted_address": "Nevşehir Türkiye", "lng": 34.804016027124305, "lat": 38.61867572473837}, {"formatted_address": "Gaferli Mah. Manav Çıkmazı No:28 Göreme Tarihi Milli Parkı Türkiye", "lng": 34.829955801634455, "lat": 38.642157514143655}, {"formatted_address": "Erciyesevler Mah. Levent Çetinkaya Sok. Apt No:13 (Büyük Beğendik Karşısı Ziraat Bankası Arkası) Kayseri Türkiye", "lng": 35.527456931018456, "lat": 38.73392285276442}, {"formatted_address": "Türkiye", "lng": 34.84111433064277, "lat": 38.71904758501324}, {"formatted_address": "Bogazkopru Kayseri Türkiye", "lng": 35.34440450017852, "lat": 38.75446814907699}, {"formatted_address": "Ortayazı Türkiye", "lng": 34.838295187763485, "lat": 38.643065193365146}, {"formatted_address": "Türkiye", "lng": 34.8299611925801, "lat": 38.6422580207024}, {"formatted_address": "Organize Sanayi Bölgesi 28.cadde 16 Numara Türkiye", "lng": 35.34465096489737, "lat": 38.714675155756446}]},
{"Hayır'da": [{"formatted_address": "Türkiye", "lng": 27.404492487973773, "lat": 39.483710124668406}, {"formatted_address": "Ahmet Taner Kislali Mah. Alacaatlı Cd. (Hilmi Barlas) Ankara Türkiye", "lng": 32.68826299891075, "lat": 39.872280411908754}, {"formatted_address": "Türkiye", "lng": 35.00608958548127, "lat": 38.96337631495337}, {"formatted_address": "Emek Mah. Kaplıca Cad. No:198 Kozaklı Nevşehir Türkiye", "lng": 35.00026309471679, "lat": 38.965936860661174}]},
{"Şubat'ta": [{"formatted_address": "Niğde Türkiye", "lng": 34.671833916969604, "lat": 37.969331956299754}, {"formatted_address": "Çayır Mahallesi İstasyon Caddesi 51100 Niğde Türkiye", "lng": 34.684411, "lat": 37.967364}, {"formatted_address": "Eski Tekel binasi İstanbul Türkiye", "lng": 29.02155940644701, "lat": 41.031543685967115}, {"formatted_address": "İsmet İnönü Cad. Eskişehir Türkiye", "lng": 30.510870506816424, "lat": 39.7811072602521}, {"formatted_address": "Tahmis Meydanı Oral İş Merkezi, PTT Arkası 22100 Edirne Türkiye", "lng": 26.55401909215455, "lat": 41.67581941455026}, {"formatted_address": "286/4 Sok. No:2/A Bayraklı Türkiye", "lng": 27.184153953456455, "lat": 38.45194852646215}, {"formatted_address": "Türkiye", "lng": 34.686798430580275, "lat": 37.96520936696659}, {"formatted_address": "Türkiye", "lng": 34.68323440032196, "lat": 37.96695052139188}, {"formatted_address": "Türkiye", "lng": 34.690265118987476, "lat": 37.96501032938353}, {"formatted_address": "Çengelköy Mah. Pazar Kayığı Sok. No:7 34680 Üsküdar Türkiye", "lng": 29.052365346833966, "lat": 41.05007414451848}]},
{"İstanbul'da": [{"formatted_address": "Rıhtım Cad. No:3-4 Karaköy 34425 Beyoğlu Türkiye", "lng": 28.97747039794922, "lat": 41.02294161769885}, {"formatted_address": "Hoca Paşa Mah. Nöbethane Cad. No:1 Gülhane 34100 Fatih Türkiye", "lng": 28.97857078488077, "lat": 41.01209006569509}, {"formatted_address": "Yıldız Posta Cad. Sinan Pasajı No:38/26 Gayrettepe 34349 İstanbul Türkiye", "lng": 29.008117871525084, "lat": 41.06536292778856}, {"formatted_address": "El Sanatları Çarşısı Göreme Tarihi Milli Parkı Türkiye", "lng": 34.830295430545654, "lat": 38.64393565561302}, {"formatted_address": "Altayçeşme Mah. Zuhal Sok. No:22 Maltepe (Niyazibey İş Merkezi, No:1) 34840 İstanbul Türkiye", "lng": 29.133944595583927, "lat": 40.93923587819894}, {"formatted_address": "Sivas Cad. Pilavcılar Apt. (Akbank Yanı) Kayseri Türkiye", "lng": 35.501193487053754, "lat": 38.725420082539806}, {"formatted_address": "Emirgan Sarıyer Türkiye", "lng": 29.053649503379965, "lat": 41.109085115369126}, {"formatted_address": "2000 Evler Mah. (Zübeyde Hanım Cad.) Nevşehir Türkiye", "lng": 34.73828764257794, "lat": 38.66752527858202}, {"formatted_address": "Eski Hal Civarı, Uzun Çarşı No:14 27400 Gaziantep Türkiye", "lng": 37.385007441043854, "lat": 37.06342420478349}, {"formatted_address": "kale Cad. ORTAHISAR Nevşehir Türkiye", "lng": 34.86484965276789, "lat": 38.62123528550925}]},
{"Referandumunda": []},
{"Bagimlilik": [{"formatted_address": "Kısıklı Cad. Haluk Turksoy Sok. No:1 Üsküdar İstanbul Türkiye", "lng": 29.03845485388493, "lat": 41.023823414671334}, {"formatted_address": "Nisbetiye Cad. No:94 Etiler 34337 Beşiktaş Türkiye", "lng": 29.03327219013406, "lat": 41.080049031606286}, {"formatted_address": "Kışla Cad. No:27 Eyüp İstanbul Türkiye", "lng": 28.92270692304488, "lat": 41.03795963775953}, {"formatted_address": "Bizim Evler Sitesi T4 Çarşı 36 (Ispartakule) Bahceşehir Türkiye", "lng": 28.713021310445566, "lat": 41.057695115031}, {"formatted_address": "Merkezefendi Mah. Merkez Efendi Cad. Hamam Çıkmazı Sok. No:1 (Merkezefendi Şubesi) 34394 İstanbul Türkiye", "lng": 28.919813632965088, "lat": 41.014826545606645}, {"formatted_address": "Muallim Naci Cad. No: 56 Kuruçeşme 34345 Beşiktaş Türkiye", "lng": 29.034897474173853, "lat": 41.05578338565997}, {"formatted_address": "İstiklal Cad. Beyoğlu (İstiklal Caddesi) İstanbul Türkiye", "lng": 28.976279497146606, "lat": 41.03271197096095}, {"formatted_address": "Miralay Şefik Bey Sok No : 6 Taksim-Beyoğlu/İstanbul İstanbul Türkiye", "lng": 28.989445544752638, "lat": 41.03921513918765}, {"formatted_address": "Hoşnudiye Mah. Vural Sok. No:61 26170 Eskişehir Türkiye", "lng": 30.513619780540466, "lat": 39.7800795829699}, {"formatted_address": "Akçam Sokak 4.Levent İstanbul Türkiye", "lng": 29.00979457538158, "lat": 41.08686035641919}]}
]