[{"ÇokÖözlendi": []},
{"Şunu": [{"lat": 41.06390414556689, "lng": 29.033022144905406, "formatted_address": "Kuruçeşme Mah. Yol Sok. No:2 Ulus (Ulus Parkı) Beşiktaş Türkiye"}, {"lat": 40.9927372502538, "lng": 29.12538597425631, "formatted_address": "Ataşehir Blv. Ata-4 Plaza T Blok No:1 (Ataşehir) İstanbul Türkiye"}, {"lat": 41.03376510150205, "lng": 28.980441093512013, "formatted_address": "Kuloğlu Mah. Ayhan Işık Sok. Beyoğlu İstanbul Türkiye"}, {"lat": 41.05578338565997, "lng": 29.034897474173853, "formatted_address": "Muallim Naci Cad. No: 56 Kuruçeşme 34345 Beşiktaş Türkiye"}, {"lat": 41.03478786598853, "lng": 28.977689628584034, "formatted_address": "Solakzade Sok. No: 17/A Beyoğlu (İstiklal) 34100 İstanbul Türkiye"}, {"lat": 38.6694412893333, "lng": 26.75490213546557, "formatted_address": "Foça Foça Türkiye"}, {"lat": 40.762427849627166, "lng": 29.924623421614175, "formatted_address": "Fettah Öven Sok. (Yuruyus yolu) İzmit Türkiye"}, {"lat": 40.65734722037268, "lng": 29.259513474302107, "formatted_address": "Valı konagı karsısı.duvarın dıbı.donanmaya gelmeden. Yalova Türkiye"}, {"lat": 40.93524330396466, "lng": 29.124284165666246, "formatted_address": "Adatepe İstanbul Türkiye"}, {"lat": 41.04461468296378, "lng": 29.007725715637207, "formatted_address": "Barbaros Blv. Mazhar Paşa Sok. Beşiktaş İstanbul Türkiye"}, {"lat": 40.990569967439036, "lng": 29.02390089810656, "formatted_address": "Muvakkithane Cad. No:9/A 34710 Kadıköy Türkiye"}]},
{"El Bab’da": [{"lat": 38.72724475600214, "lng": 35.493947087088046, "formatted_address": "Serceonu Mah. CAnkaya Cad. Erciyes Sitesi E Blok No:21/A Kayseri Türkiye"}, {"lat": 38.599214043518856, "lng": 34.84996318817139, "formatted_address": "ibrahimpaşa köyü, tarihi köprü yanı no:44 Ürgüp (göreme, ortahisar, uçhisar yakınları) 50400 Nevşehir Türkiye"}, {"lat": 38.61867572473837, "lng": 34.804016027124305, "formatted_address": "Nevşehir Türkiye"}, {"lat": 38.642157514143655, "lng": 34.829955801634455, "formatted_address": "Gaferli Mah. Manav Çıkmazı No:28 Göreme Tarihi Milli Parkı Türkiye"}, {"lat": 38.73392285276442, "lng": 35.527456931018456, "formatted_address": "Erciyesevler Mah. Levent Çetinkaya Sok. Apt No:13 (Büyük Beğendik Karşısı Ziraat Bankası Arkası) Kayseri Türkiye"}, {"lat": 38.71904758501324, "lng": 34.84111433064277, "formatted_address": "Türkiye"}, {"lat": 38.75446814907699, "lng": 35.34440450017852, "formatted_address": "Bogazkopru Kayseri Türkiye"}, {"lat": 38.643065193365146, "lng": 34.838295187763485, "formatted_address": "Ortayazı Türkiye"}, {"lat": 38.6422580207024, "lng": 34.8299611925801, "formatted_address": "Türkiye"}, {"lat": 38.714675155756446, "lng": 35.34465096489737, "formatted_address": "Organize Sanayi Bölgesi 28.cadde 16 Numara Türkiye"}, {"lat": 38.71482541526885, "lng": 35.34495636580559, "formatted_address": "Türkiye"}]},
{"El": [{"lat": 38.72724475600214, "lng": 35.493947087088046, "formatted_address": "Serceonu Mah. CAnkaya Cad. Erciyes Sitesi E Blok No:21/A Kayseri Türkiye"}, {"lat": 38.599214043518856, "lng": 34.84996318817139, "formatted_address": "ibrahimpaşa köyü, tarihi köprü yanı no:44 Ürgüp (göreme, ortahisar, uçhisar yakınları) 50400 Nevşehir Türkiye"}, {"lat": 38.642157514143655, "lng": 34.829955801634455, "formatted_address": "Gaferli Mah. Manav Çıkmazı No:28 Göreme Tarihi Milli Parkı Türkiye"}, {"lat": 38.73392285276442, "lng": 35.527456931018456, "formatted_address": "Erciyesevler Mah. Levent Çetinkaya Sok. Apt No:13 (Büyük Beğendik Karşısı Ziraat Bankası Arkası) Kayseri Türkiye"}, {"lat": 38.61867572473837, "lng": 34.804016027124305, "formatted_address": "Nevşehir Türkiye"}, {"lat": 36.37958621844098, "lng": 33.92825059995615, "formatted_address": "Göksu mah Abdi ipekçi cad hacı İlyas evcil apt altı silifke (Abdi ipekçi) 33940 Silifke Türkiye"}, {"lat": 36.983751976020265, "lng": 35.32978138971731, "formatted_address": "Büyüksaat (23004 Sokak No:1) Adana Türkiye"}, {"lat": 37.0622711624429, "lng": 37.386309714089045, "formatted_address": "Şekeroğlu Mah. 27400 Gaziantep Türkiye"}, {"lat": 38.71904758501324, "lng": 34.84111433064277, "formatted_address": "Türkiye"}, {"lat": 39.9081423921039, "lng": 32.8598398282532, "formatted_address": "Bestekar Sk. No:45 Kavaklıdere Ankara Türkiye"}, {"lat": 37.018597764068, "lng": 35.24295379489564, "formatted_address": "Yeni Mh. 87071. Sk (M1 Tepe Avm) 01000 Adana Türkiye"}]},
{"Kafanı": [{"lat": 41.01620179402091, "lng": 28.96635353086586, "formatted_address": "Süleymaniye mah Siyavuşpaşa sokak no.20 34116 İstanbul Türkiye"}, {"lat": 37.766365249945764, "lng": 30.55503637547057, "formatted_address": "Kutlubey Mah. 1005. Sok. No:16 (Kafeler Caddesi) 32100 Isparta Türkiye"}, {"lat": 40.18854106205506, "lng": 29.114946867941246, "formatted_address": "Türkiye"}, {"lat": 40.190641, "lng": 29.073041, "formatted_address": "Demirtaspasa Mah. Bursa Türkiye"}, {"lat": 40.198608174593645, "lng": 28.994277261989776, "formatted_address": "Odunluk Mah. Odunluk Cad No:19/b (Orhaneli Yolu) 16110 Bursa Türkiye"}, {"lat": 40.18969155988497, "lng": 29.115452368988205, "formatted_address": "Ortabağlar Ortabağlar, Bursa Türkiye"}, {"lat": 40.29523865475188, "lng": 29.02111611031444, "formatted_address": "Çağlayan Köyü Bursa Türkiye"}, {"lat": 40.25060758938843, "lng": 29.24679108398314, "formatted_address": "Türkiye"}, {"lat": 40.03641885360636, "lng": 28.407961058622085, "formatted_address": "16500 Mustafakemalpaşa, Bursa Türkiye"}, {"lat": 37.75290678352616, "lng": 29.26994252573483, "formatted_address": "Honaz Türkiye"}, {"lat": 36.88435262010599, "lng": 30.705807194382498, "formatted_address": "Kaleiçi Antalya Türkiye"}]},
{"İstanbul Aydın Üniversitesi": [{"lat": 40.991682455275146, "lng": 28.796355260344612, "formatted_address": "Florya Yerleşkesi (Beşyol Mah. İnönü Cad. No:38 Sefaköy) 34295 Küçükçekmece Türkiye"}, {"lat": 38.69284888610844, "lng": 35.54512863496043, "formatted_address": "Türkiye"}, {"lat": 40.99919396545351, "lng": 28.874286713146468, "formatted_address": "Bahçelievler Mah. Naci Kasım Cad. Baran Sitesi A-1 Blok No:33/C 34180 İstanbul Türkiye"}]},
{"\"MHP'de": [{"lat": 38.7007273625491, "lng": 35.55288350927413, "formatted_address": "Mevlana Mah. Mehmet Akif Ersoy Cad. Aydın Sitesi 38280 Talas Türkiye"}, {"lat": 38.73711844808093, "lng": 35.42406508804099, "formatted_address": "Osman Kavuncu Mah. Bahariye Cad. Melikgazi (Osman Kavuncu) 38130 Kayseri Türkiye"}, {"lat": 38.964376745282685, "lng": 35.00259266334495, "formatted_address": "Türkiye"}, {"lat": 38.73347342104668, "lng": 35.513000256928585, "formatted_address": "Mimarsinan Mah. Nefi Cad. Batman Sok. No:1 Kayseri Türkiye"}, {"lat": 38.72717527081883, "lng": 35.518464584029196, "formatted_address": "Kayseri Park (Alparlan Mah. Eşref Bitlis Blv.  No:10/201) 38030 Melikgazi Türkiye"}, {"lat": 39.14264062574636, "lng": 34.159080824044594, "formatted_address": "Kuşdilli Mah. Terme Cad. No: 38/E 40200 Kırşehir Türkiye"}, {"lat": 38.62639873275299, "lng": 34.71802600415669, "formatted_address": "Kayseri Cd. Belediye ahşap büfeleri no:18 Nevşehir Türkiye"}, {"lat": 38.719815764001616, "lng": 35.489759389207336, "formatted_address": "Cumhuriyet Mah. Millet Cad. No: 15 38350 Melikgazi Türkiye"}, {"lat": 38.72291087891282, "lng": 35.496909899988616, "formatted_address": "Forum Kayseri (Hunat Mah. Sivas Cad. No:24/1) 38030 Melikgazi Türkiye"}, {"lat": 39.215488750153774, "lng": 34.851619264956256, "formatted_address": "Türkiye"}, {"lat": 38.71843831927929, "lng": 35.48897406662036, "formatted_address": "38040 Kayseri Türkiye"}]},
{"Saray'ında Hükümetinde": [{"lat": 38.7196092083641, "lng": 35.490048202888794, "formatted_address": "Sultanhamam Cad. No:6/B Melikgazi Kayseri Türkiye"}, {"lat": 38.71998486373907, "lng": 35.48828856286438, "formatted_address": "Cumhuriyet Mahallesi (Nazmi Toker Caddesi) Kayseri Türkiye"}, {"lat": 38.726216423291824, "lng": 35.49575473669673, "formatted_address": "Merkez Kayseri Türkiye"}, {"lat": 38.73849367074724, "lng": 34.66254392344462, "formatted_address": "Gülşehir Türkiye"}, {"lat": 38.32981520171802, "lng": 35.46415251307098, "formatted_address": "Necati Kurmel Bulvarı No:53 Develi Kayseri Türkiye"}, {"lat": 38.732190730050284, "lng": 35.52569275613027, "formatted_address": "Sivas Cd Ipek Saray Avm Kayseri Türkiye"}, {"lat": 37.9683205639984, "lng": 34.675484827461425, "formatted_address": "Niğde Türkiye"}, {"lat": 38.73235447204607, "lng": 35.526280818694694, "formatted_address": "İpek Saray Kayseri Türkiye"}, {"lat": 38.72662526392809, "lng": 35.50610248862847, "formatted_address": "Palmiye Apt No.84/b (Sivas Cad.) 38050 Kayseri Türkiye"}, {"lat": 38.62379970310503, "lng": 35.18155006830026, "formatted_address": "İncesu Türkiye"}, {"lat": 38.73201608023998, "lng": 35.52598144192253, "formatted_address": "Sivas Caddesi İpeksaray A.V.M No:182 38030 Kayseri Türkiye"}]},
{"Bizi": [{"lat": 40.908082254424485, "lng": 29.31550853491538, "formatted_address": "34912 İstanbul Türkiye"}, {"lat": 41.05578338565997, "lng": 29.034897474173853, "formatted_address": "Muallim Naci Cad. No: 56 Kuruçeşme 34345 Beşiktaş Türkiye"}, {"lat": 41.029495474553016, "lng": 28.97441509402053, "formatted_address": "Asmalı Mescit Mh. Sofyalı Sk Beyoğlu (Sofyalı Sokak No:12) 34400 İstanbul Türkiye"}, {"lat": 41.017881729054274, "lng": 28.965074330219732, "formatted_address": "Fetva Yokuşu Nazir Efendi Sokak No:12 / 905 Süleymaniye, İstanbul (Süleymaniye) 34200 İstanbul Türkiye"}, {"lat": 40.98768134935173, "lng": 29.036929607391354, "formatted_address": "Zühtüpaşa Mah. Recep Peker Cad. 34200 Kadıköy Türkiye"}, {"lat": 41.04586796060448, "lng": 28.990184523084633, "formatted_address": "Harbiye Mah. Taşkışla Cad. No:8 34367 Şişli Türkiye"}, {"lat": 41.008932280336396, "lng": 28.893752157480563, "formatted_address": "Platform Merter (General Ali Rıza Gürcan Cad. No:27) 34173 Güngören Türkiye"}, {"lat": 41.03558375741796, "lng": 28.980179429054264, "formatted_address": "Hüseyin Ağa Mah. Atıf Yılmaz caddesi.No:15/2  Beyoğlu 34435 İstanbul Türkiye"}, {"lat": 40.729812179643474, "lng": 30.37983503317119, "formatted_address": "Hanlı Köy Mah. Hürriyet Cad. No:3 54100 Arifiye Türkiye"}, {"lat": 41.03231138412985, "lng": 28.977865860245746, "formatted_address": "Yeni Çarşı Cad. No:32 Beyoğlu İstanbul Türkiye"}, {"lat": 40.97804965263235, "lng": 28.821999055487307, "formatted_address": "Dış Hatlar Gidiş Terminali (İstanbul Atatürk Havalimanı) Bakırköy Türkiye"}]},
{"Aragon": [{"lat": 40.763334684258744, "lng": 29.948438569023693, "formatted_address": "Real Avm Yapı Kredi Karşısı Karaca Mağazası 41050 Türkiye"}]},
{"Türkiye": [{"lat": 41.039362775881784, "lng": 28.986296320452443, "formatted_address": "Taksim Meydanı 34400 Beyoğlu Türkiye"}, {"lat": 41.103398674263026, "lng": 28.99088144302368, "formatted_address": "Seyrantepe (Ali Sami Yen Spor Kompleksi) 34396 Şişli Türkiye"}, {"lat": 41.0589042953736, "lng": 28.949359198063334, "formatted_address": "Sütlüce Mh İmrahor Cd Beyoğlu 34445 İstanbul Türkiye"}, {"lat": 40.98768134935173, "lng": 29.036929607391354, "formatted_address": "Zühtüpaşa Mah. Recep Peker Cad. 34200 Kadıköy Türkiye"}, {"lat": 38.307912095992265, "lng": 26.369637599710767, "formatted_address": "Ilıca Çeşme Türkiye"}, {"lat": 37.07245011559636, "lng": 27.244678467093994, "formatted_address": "Koyunbaba Mah. Kazım Karabekir Cad. No: 71 Muğla Türkiye"}, {"lat": 39.0, "lng": 35.0, "formatted_address": "Türkiye"}, {"lat": 40.97973494536059, "lng": 28.817150614497073, "formatted_address": "Yeşilköy Mah. 34149 İstanbul Türkiye"}, {"lat": 40.729812179643474, "lng": 30.37983503317119, "formatted_address": "Hanlı Köy Mah. Hürriyet Cad. No:3 54100 Arifiye Türkiye"}, {"lat": 40.908082254424485, "lng": 29.31550853491538, "formatted_address": "34912 İstanbul Türkiye"}, {"lat": 38.70996280146297, "lng": 34.83488837466427, "formatted_address": "Avanos Avanos Türkiye"}]},
{"Bana": [{"lat": 38.29172390955387, "lng": 27.1498640561956, "formatted_address": "35410 Gaziemir Türkiye"}, {"lat": 39.9020109794844, "lng": 32.860324439618054, "formatted_address": "Kavaklıdere 06680 Çankaya Türkiye"}, {"lat": 37.905554857061915, "lng": 32.4947472550159, "formatted_address": "Bedir Mah. Ataseven Cad. No:2 42100 Selçuklu Türkiye"}, {"lat": 36.98783399483568, "lng": 35.31962566583252, "formatted_address": "Meydan Mh. Bakımyurdu Cd. No:63/A 01070 Adana Türkiye"}, {"lat": 39.9008769413085, "lng": 32.8099454550678, "formatted_address": "Kızılırmak Mah. Muhsin Yazıcıoğlu Cad. No:61 (Çukuramabar Şubesi) Çankaya Türkiye"}, {"lat": 39.91803004878257, "lng": 32.81254599072516, "formatted_address": "Beştepe Mah. Mevlana Blv. No:82 06560 Ankara Türkiye"}, {"lat": 36.88529215497414, "lng": 30.70622264703508, "formatted_address": "Selçuk Mah. 07100 Muratpaşa Türkiye"}, {"lat": 41.07800409272287, "lng": 29.045040902615014, "formatted_address": "Bebek Beşiktaş Türkiye"}, {"lat": 40.99021327670282, "lng": 28.91129287002004, "formatted_address": "Türkiye"}, {"lat": 36.6740835483883, "lng": 27.505888656267636, "formatted_address": "Palamutbükü 48900 Datça Türkiye"}, {"lat": 37.912845304722545, "lng": 40.23716097309653, "formatted_address": "Gazi Cad. Ulu Camî Karşısı 21100 Sur Türkiye"}]},
{"Dünya": [{"lat": 38.635085432510394, "lng": 35.51690338529211, "formatted_address": "Hisarcık 38230 Kayseri Türkiye"}, {"lat": 37.96788535911022, "lng": 34.675463224893946, "formatted_address": "Saruhan Mah. (Eski Vali Konağı Cad.) Niğde Türkiye"}, {"lat": 38.735967127013765, "lng": 35.516336641326646, "formatted_address": "Tuna Caddesi 31/A Yıldız Apt Altı Kocasinan / Kayseri (Tuna Caddesi) Kayseri Türkiye"}, {"lat": 41.034111494765284, "lng": 28.978815233800894, "formatted_address": "34400 Beyoğlu Türkiye"}, {"lat": 38.72646804853807, "lng": 35.50442875565851, "formatted_address": "Sivas Cad. No:99/A 38010 Kayseri Türkiye"}, {"lat": 38.71798064851333, "lng": 35.488716442365025, "formatted_address": "Millet Cad. Tekçe Apt. Kat:4 Daire:3 KAYSERİ (A Bank yanı-Kuveyt Türk Bankası Karşısı) 38050 Melikgazi Türkiye"}, {"lat": 41.07511076656005, "lng": 28.9232130574812, "formatted_address": "Yeşilpınar Mah. Şehit Metin Kaya Sok. No:11 34065 İstanbul Türkiye"}, {"lat": 38.7202090621324, "lng": 35.514417167713574, "formatted_address": "Köşk Mahallesi (Köşk Caddesi) Kayseri Türkiye"}, {"lat": 41.103398674263026, "lng": 28.99088144302368, "formatted_address": "Seyrantepe (Ali Sami Yen Spor Kompleksi) 34396 Şişli Türkiye"}, {"lat": 37.9764090608253, "lng": 34.687300623029685, "formatted_address": "Yeşilburç Yolu 51100 Niğde Türkiye"}, {"lat": 36.5469012434652, "lng": 29.12318802854395, "formatted_address": "Ölüdeniz Fethiye Türkiye"}]},
{"El Bab’da": [{"lat": 38.72724475600214, "lng": 35.493947087088046, "formatted_address": "Serceonu Mah. CAnkaya Cad. Erciyes Sitesi E Blok No:21/A Kayseri Türkiye"}, {"lat": 38.599214043518856, "lng": 34.84996318817139, "formatted_address": "ibrahimpaşa köyü, tarihi köprü yanı no:44 Ürgüp (göreme, ortahisar, uçhisar yakınları) 50400 Nevşehir Türkiye"}, {"lat": 38.61867572473837, "lng": 34.804016027124305, "formatted_address": "Nevşehir Türkiye"}, {"lat": 38.642157514143655, "lng": 34.829955801634455, "formatted_address": "Gaferli Mah. Manav Çıkmazı No:28 Göreme Tarihi Milli Parkı Türkiye"}, {"lat": 38.73392285276442, "lng": 35.527456931018456, "formatted_address": "Erciyesevler Mah. Levent Çetinkaya Sok. Apt No:13 (Büyük Beğendik Karşısı Ziraat Bankası Arkası) Kayseri Türkiye"}, {"lat": 38.71904758501324, "lng": 34.84111433064277, "formatted_address": "Türkiye"}, {"lat": 38.75446814907699, "lng": 35.34440450017852, "formatted_address": "Bogazkopru Kayseri Türkiye"}, {"lat": 38.643065193365146, "lng": 34.838295187763485, "formatted_address": "Ortayazı Türkiye"}, {"lat": 38.6422580207024, "lng": 34.8299611925801, "formatted_address": "Türkiye"}, {"lat": 38.714675155756446, "lng": 35.34465096489737, "formatted_address": "Organize Sanayi Bölgesi 28.cadde 16 Numara Türkiye"}, {"lat": 38.71482541526885, "lng": 35.34495636580559, "formatted_address": "Türkiye"}]},
{"PKK'da": [{"lat": 38.54123513084819, "lng": 35.52419585034314, "formatted_address": "Erciyes Kayseri Türkiye"}, {"lat": 38.72380669453072, "lng": 35.49651949941822, "formatted_address": "Forum Kayseri (Hunat Mah. Sivas Cad. No:24/1) 38030 Kayseri Türkiye"}, {"lat": 37.97032001396948, "lng": 34.676456451416016, "formatted_address": "Dr Sami Yagız caddesi Selçuk mahallesi Kültür merkezi içerisi (Bor caddesi) 51100 Niğde Türkiye"}, {"lat": 38.696304065782336, "lng": 35.543418293838144, "formatted_address": "Mehmet Cemileogulcuklu Cad.Dadaş Apt Altı Kayseri/Talas Türkiye"}, {"lat": 38.682333978509796, "lng": 35.56167966141268, "formatted_address": "Türkiye"}, {"lat": 38.69700971448117, "lng": 35.54314570488161, "formatted_address": "Talas Yenidogan Mahallesi Kayseri Türkiye"}, {"lat": 38.72666846136067, "lng": 35.51754355430603, "formatted_address": "Alparslan Mah. Eşref Bitlis Bulvarı Kat: 2 No: 110/A Kayseri Park AVM 38030 Melikgazi Türkiye"}, {"lat": 38.677102818489296, "lng": 35.55038770736901, "formatted_address": "Ali Dağı 38280 Talas Türkiye"}, {"lat": 38.73207240445102, "lng": 35.52622201263033, "formatted_address": "Türkiye"}, {"lat": 38.6746417172749, "lng": 35.55225288565874, "formatted_address": "Ali Dağı, Kayseri Kayseri Türkiye"}, {"lat": 38.591716861210266, "lng": 35.46404551109127, "formatted_address": "Kayseri Türkiye"}]},
{"FETÖ'de": [{"lat": 38.7007273625491, "lng": 35.55288350927413, "formatted_address": "Mevlana Mah. Mehmet Akif Ersoy Cad. Aydın Sitesi 38280 Talas Türkiye"}, {"lat": 38.73711844808093, "lng": 35.42406508804099, "formatted_address": "Osman Kavuncu Mah. Bahariye Cad. Melikgazi (Osman Kavuncu) 38130 Kayseri Türkiye"}, {"lat": 38.964376745282685, "lng": 35.00259266334495, "formatted_address": "Türkiye"}, {"lat": 38.73347342104668, "lng": 35.513000256928585, "formatted_address": "Mimarsinan Mah. Nefi Cad. Batman Sok. No:1 Kayseri Türkiye"}, {"lat": 38.72717527081883, "lng": 35.518464584029196, "formatted_address": "Kayseri Park (Alparlan Mah. Eşref Bitlis Blv.  No:10/201) 38030 Melikgazi Türkiye"}, {"lat": 39.14264062574636, "lng": 34.159080824044594, "formatted_address": "Kuşdilli Mah. Terme Cad. No: 38/E 40200 Kırşehir Türkiye"}, {"lat": 38.62639873275299, "lng": 34.71802600415669, "formatted_address": "Kayseri Cd. Belediye ahşap büfeleri no:18 Nevşehir Türkiye"}, {"lat": 38.719815764001616, "lng": 35.489759389207336, "formatted_address": "Cumhuriyet Mah. Millet Cad. No: 15 38350 Melikgazi Türkiye"}, {"lat": 38.72291087891282, "lng": 35.496909899988616, "formatted_address": "Forum Kayseri (Hunat Mah. Sivas Cad. No:24/1) 38030 Melikgazi Türkiye"}, {"lat": 38.71843831927929, "lng": 35.48897406662036, "formatted_address": "38040 Kayseri Türkiye"}, {"lat": 38.72592503693732, "lng": 35.50286728674716, "formatted_address": "Sivas Cad. 38050 Kayseri Türkiye"}]},
{"Kul'a": [{"lat": 38.34044254519329, "lng": 26.31448767917117, "formatted_address": "Sakarya Mah. Aya Yorgi Mevki No:17 (Ayayorgi Koyu) 35930 Çeşme Türkiye"}, {"lat": 38.54596729925477, "lng": 28.645601664846982, "formatted_address": "Kula Çarsısı Manisa Türkiye"}, {"lat": 38.545877316853584, "lng": 28.64860957980743, "formatted_address": "Kula,Manisa Manisa Türkiye"}, {"lat": 41.030858277465036, "lng": 28.972624303564167, "formatted_address": "Refik Saydam Cad. No: 15/A Beyoğlu İstanbul Türkiye"}, {"lat": 37.76832311322696, "lng": 30.55969476699829, "formatted_address": "İstasyon Cad. No:14 32100 Isparta Türkiye"}, {"lat": 38.548165423046584, "lng": 28.6488676071167, "formatted_address": "Akgün Mah. Zafer Sok. No 7 KULA Manisa Türkiye"}, {"lat": 38.544209980911994, "lng": 28.637654347575666, "formatted_address": "Kula Kula Türkiye"}, {"lat": 40.210151689336634, "lng": 28.99794358158658, "formatted_address": "Odunluk mah. Akpınar cad. No 17 Bursa Türkiye"}, {"lat": 38.29377465346334, "lng": 26.27779670972694, "formatted_address": "Çiftlikkoy (Çeşme) İzmir Türkiye"}, {"lat": 38.546187, "lng": 28.645673, "formatted_address": "Türkiye"}, {"lat": 37.85223388749042, "lng": 27.725840220127406, "formatted_address": "Türkiye"}]},
{"ÇokÖzlendi": []},
{"Atatürk'e": [{"lat": 38.94279125250879, "lng": 34.56051003339276, "formatted_address": "Hacıbektaş Türkiye"}, {"lat": 38.7190388111909, "lng": 35.490458607673645, "formatted_address": "Cumhuriyet Mh. (Tennuri Cd.) 38010 Kayseri Türkiye"}, {"lat": 40.908082254424485, "lng": 29.31550853491538, "formatted_address": "34912 İstanbul Türkiye"}, {"lat": 40.97900814710599, "lng": 29.02363947119812, "formatted_address": "Türkiye"}, {"lat": 37.95643976061005, "lng": 34.66667593322237, "formatted_address": "Türkiye"}, {"lat": 38.959815979003906, "lng": 35.25025939941406, "formatted_address": "Türkiye"}, {"lat": 37.867578296046055, "lng": 32.48512387275696, "formatted_address": "Konya Türkiye"}, {"lat": 41.01529843233785, "lng": 28.95847917235722, "formatted_address": "Mollahüsrev Mah. Katip Çelebi Cad. No:104/1 Vefa 34134 Fatih Türkiye"}, {"lat": 39.764501325134475, "lng": 30.52444909261872, "formatted_address": "Eskişehir Türkiye"}, {"lat": 38.39329646061927, "lng": 26.748583207541095, "formatted_address": "Urla Türkiye"}, {"lat": 38.465528900628975, "lng": 27.20625266202757, "formatted_address": "Bornova otobani çıkışı (Bornova) İzmir Türkiye"}]},
{"Kudüs'te": [{"lat": 38.942281143155874, "lng": 34.56226754821604, "formatted_address": "Velbert Cd. Hacıbektaş (Eski Pazaryeri Sk.) Nevşehir Türkiye"}, {"lat": 38.74854970311018, "lng": 35.53876812116126, "formatted_address": "Türkiye"}, {"lat": 38.72294940245227, "lng": 35.49792065438815, "formatted_address": "Forum Kayseri (Hunat Mah. Sivas Cd. No:24/1) 38030 Melikgazi Türkiye"}, {"lat": 38.243287378566116, "lng": 35.13372979812448, "formatted_address": "İçmece Mah. Yeşilhisar Türkiye"}, {"lat": 38.73700570770757, "lng": 35.42536043770761, "formatted_address": "Türkiye"}, {"lat": 38.711282386651426, "lng": 35.537789947380325, "formatted_address": "Türkiye"}, {"lat": 38.956483140031935, "lng": 35.02708958447395, "formatted_address": "KALABA (KAYSERİ-ANKARA KARAYOLU) 50020 AVANOS Türkiye"}, {"lat": 38.73741520237363, "lng": 35.427405121384616, "formatted_address": "Kayseri Türkiye"}, {"lat": 38.96217075963377, "lng": 35.00896771254939, "formatted_address": "Kalaba Türkiye"}, {"lat": 38.729012265291004, "lng": 35.45087784417784, "formatted_address": "Osman Kavuncu Bulv. No:208 Kayseri̇ Türkiye"}]},
{"El Bab’da": [{"lat": 38.72724475600214, "lng": 35.493947087088046, "formatted_address": "Serceonu Mah. CAnkaya Cad. Erciyes Sitesi E Blok No:21/A Kayseri Türkiye"}, {"lat": 38.599214043518856, "lng": 34.84996318817139, "formatted_address": "ibrahimpaşa köyü, tarihi köprü yanı no:44 Ürgüp (göreme, ortahisar, uçhisar yakınları) 50400 Nevşehir Türkiye"}, {"lat": 38.61867572473837, "lng": 34.804016027124305, "formatted_address": "Nevşehir Türkiye"}, {"lat": 38.642157514143655, "lng": 34.829955801634455, "formatted_address": "Gaferli Mah. Manav Çıkmazı No:28 Göreme Tarihi Milli Parkı Türkiye"}, {"lat": 38.73392285276442, "lng": 35.527456931018456, "formatted_address": "Erciyesevler Mah. Levent Çetinkaya Sok. Apt No:13 (Büyük Beğendik Karşısı Ziraat Bankası Arkası) Kayseri Türkiye"}, {"lat": 38.71904758501324, "lng": 34.84111433064277, "formatted_address": "Türkiye"}, {"lat": 38.75446814907699, "lng": 35.34440450017852, "formatted_address": "Bogazkopru Kayseri Türkiye"}, {"lat": 38.643065193365146, "lng": 34.838295187763485, "formatted_address": "Ortayazı Türkiye"}, {"lat": 38.6422580207024, "lng": 34.8299611925801, "formatted_address": "Türkiye"}, {"lat": 38.714675155756446, "lng": 35.34465096489737, "formatted_address": "Organize Sanayi Bölgesi 28.cadde 16 Numara Türkiye"}, {"lat": 38.71482541526885, "lng": 35.34495636580559, "formatted_address": "Türkiye"}]},
{"Şubat'ta Masa'da": [{"lat": 37.969331956299754, "lng": 34.671833916969604, "formatted_address": "Niğde Türkiye"}, {"lat": 38.723734371868815, "lng": 35.51513314258045, "formatted_address": "Alpaslan Mah. Mustafa Şimşek Blv. Gökçe Fidan Sk. No:5/B 38030 Melikgazi Türkiye"}, {"lat": 37.966212334338245, "lng": 34.67403744351166, "formatted_address": "eskı saray mahallesi eski müze caddesi türk apt altı 18 /c Niğde (eski müze) 51100 Niğde Türkiye"}, {"lat": 38.724043204666486, "lng": 35.52041069377977, "formatted_address": "Tunca Sok. Melikgazi Kayseri Türkiye"}, {"lat": 38.72048514982097, "lng": 35.49843404862946, "formatted_address": "Seyitgazi Mah. Nuh Naci Yazgan Cad. No:32 Melikgazi 38030 Kayseri Türkiye"}, {"lat": 38.700992084348336, "lng": 35.537581482587555, "formatted_address": "Yenidoğan Mah. Çimenli Cad. Talas Kayseri Türkiye"}, {"lat": 39.82675305409546, "lng": 34.820685507601844, "formatted_address": "Özel Şifa Hastanesi Karşısı 66100 Yozgat Türkiye"}, {"lat": 38.628279225197105, "lng": 34.72281927809664, "formatted_address": "ORDU EVİ KARŞISI HOTEL SEVEN YANI Nevşehir Türkiye"}, {"lat": 38.622227185311864, "lng": 34.86491970638276, "formatted_address": "Türkiye"}, {"lat": 38.72916135129122, "lng": 35.49462094933842, "formatted_address": "Serceonu Mah. Saray Cad. Mesken Sok. İrmak Sit. Alti Kocasinan/KAYSERİ Türkiye"}, {"lat": 38.77913589201428, "lng": 35.53741577942061, "formatted_address": "Tanpınar sokak (Sht Mehmet Erciyes caddesi) Kayseri Türkiye"}]},
{"Twitırda": []},
{"Batman'da Kayyum PKK'lilere": [{"lat": 38.959618, "lng": 35.2492, "formatted_address": "Türkiye"}, {"lat": 38.96337631495337, "lng": 35.00608958548127, "formatted_address": "Türkiye"}, {"lat": 39.06221567878537, "lng": 34.905710220336914, "formatted_address": "Barış Mahallesi (Mehmetçik Caddesi) 34520 Beylikdüzü Türkiye"}, {"lat": 39.05766706012348, "lng": 34.91189002990722, "formatted_address": "Elmalı Mah. 2. Sokak. Başargan İşhanı (K: 4 N0: 66) 07100 Antalya Türkiye"}, {"lat": 38.965936860661174, "lng": 35.00026309471679, "formatted_address": "Emek Mah. Kaplıca Cad. No:198 Kozaklı Nevşehir Türkiye"}, {"lat": 39.00287735637611, "lng": 34.995853900909424, "formatted_address": "857 Sokak No:3 A/B Salihağa İşhanı (Anafartalar Caddesi) 35250 Konak Türkiye"}]},
{"MHP’de": [{"lat": 38.7007273625491, "lng": 35.55288350927413, "formatted_address": "Mevlana Mah. Mehmet Akif Ersoy Cad. Aydın Sitesi 38280 Talas Türkiye"}, {"lat": 38.73711844808093, "lng": 35.42406508804099, "formatted_address": "Osman Kavuncu Mah. Bahariye Cad. Melikgazi (Osman Kavuncu) 38130 Kayseri Türkiye"}, {"lat": 38.964376745282685, "lng": 35.00259266334495, "formatted_address": "Türkiye"}, {"lat": 38.73347342104668, "lng": 35.513000256928585, "formatted_address": "Mimarsinan Mah. Nefi Cad. Batman Sok. No:1 Kayseri Türkiye"}, {"lat": 38.72717527081883, "lng": 35.518464584029196, "formatted_address": "Kayseri Park (Alparlan Mah. Eşref Bitlis Blv.  No:10/201) 38030 Melikgazi Türkiye"}, {"lat": 39.14264062574636, "lng": 34.159080824044594, "formatted_address": "Kuşdilli Mah. Terme Cad. No: 38/E 40200 Kırşehir Türkiye"}, {"lat": 38.62639873275299, "lng": 34.71802600415669, "formatted_address": "Kayseri Cd. Belediye ahşap büfeleri no:18 Nevşehir Türkiye"}, {"lat": 38.719815764001616, "lng": 35.489759389207336, "formatted_address": "Cumhuriyet Mah. Millet Cad. No: 15 38350 Melikgazi Türkiye"}, {"lat": 38.72291087891282, "lng": 35.496909899988616, "formatted_address": "Forum Kayseri (Hunat Mah. Sivas Cad. No:24/1) 38030 Melikgazi Türkiye"}, {"lat": 39.215488750153774, "lng": 34.851619264956256, "formatted_address": "Türkiye"}, {"lat": 38.71843831927929, "lng": 35.48897406662036, "formatted_address": "38040 Kayseri Türkiye"}]},
{"Masa’da": [{"lat": 41.10987407667988, "lng": 29.03105018301026, "formatted_address": "İstinyePark (İstinye Bayırı Cad. No:73) 34460 Sarıyer Türkiye"}, {"lat": 38.36525933477425, "lng": 26.768534980206496, "formatted_address": "İskele Mah. İskele Cad. (Tanju Okan Parkı) 35430 Urla Türkiye"}, {"lat": 40.777307180584444, "lng": 30.397912929358924, "formatted_address": "Semerciler Mah. Çark Cad. No:19/A 54100 Adapazarı Türkiye"}, {"lat": 39.92298958858397, "lng": 32.825812090547856, "formatted_address": "Yukarı Bahçelievler Mah. Aşkabat Cad. (7. Cad.) (Bahçelievler Şubesi) Ankara Türkiye"}, {"lat": 37.847112642993466, "lng": 27.837962786998617, "formatted_address": "Nevzat Biçer Parkı 09020 Aydın Türkiye"}, {"lat": 40.97295302593689, "lng": 28.874866957206795, "formatted_address": "Ataköy Marina Bakırköy İstanbul Türkiye"}, {"lat": 39.9008769413085, "lng": 32.8099454550678, "formatted_address": "Kızılırmak Mah. Muhsin Yazıcıoğlu Cad. No:61 (Çukuramabar Şubesi) Çankaya Türkiye"}, {"lat": 40.2174567919319, "lng": 29.000365009914425, "formatted_address": "Yenikaraman Mah. Sanayi Cad. No:58/A 16170 Osmangazi Türkiye"}, {"lat": 40.76422937425577, "lng": 29.933529880426377, "formatted_address": "Cumhuriyet Cad. Köseoğlu Sk. İzmit (Cumhurriyet) 41100 İzmit Türkiye"}, {"lat": 39.90654986716601, "lng": 32.86132118976184, "formatted_address": "Tunalı Hilmi Cad. No:83/A Kavaklıdere 06660 Ankara Türkiye"}, {"lat": 37.000574629221745, "lng": 35.32029560708682, "formatted_address": "Kurtuluş Mh. Ziyapaşa Blv. Mithat Saraçoğlu Cd. Ali Sadi Apt. 01010 Adana Türkiye"}]},
{"Yenişafak'ta": [{"lat": 38.64450766770486, "lng": 34.8337132082449, "formatted_address": "Kapadokya Nevşehir Türkiye"}, {"lat": 38.64454035276848, "lng": 34.83387492935369, "formatted_address": "Göreme Müze Yolu Üzeri Nevsehir Türkiye"}, {"lat": 38.68804802037236, "lng": 35.55827567476389, "formatted_address": "Talas Türkiye"}, {"lat": 38.721172, "lng": 35.511246, "formatted_address": "Köşk Mahallesi Çiftciler Geçidi Kardelen Apartmanı 3/3-A (Mustafa Şimşek Caddesi) Kayseri Türkiye"}, {"lat": 38.627541017530795, "lng": 34.805320501327515, "formatted_address": "Gedik Sk. no:8 Uchisar Nevsehir Türkiye"}, {"lat": 38.62260042074137, "lng": 35.513502862078056, "formatted_address": "Erciyes Dağ Yolu 11.Km Hisarcık Kayseri Türkiye"}, {"lat": 38.71780917887772, "lng": 34.848487862617475, "formatted_address": "Avanos Nevşehir Türkiye"}, {"lat": 37.972019745197734, "lng": 34.68102030752273, "formatted_address": "Niğde Türkiye"}, {"lat": 38.72644438837124, "lng": 35.51528868921984, "formatted_address": "Kızılırmak Caddesi Kayseri Türkiye"}, {"lat": 38.39724325955981, "lng": 34.12379099819258, "formatted_address": "Mamasın Barajı Gücünkaya Türkiye"}, {"lat": 38.72489388265039, "lng": 35.49345505715132, "formatted_address": "Türkiye"}]},
{"Yeni": [{"lat": 38.63156563067013, "lng": 34.9121227315213, "formatted_address": "Türkiye"}, {"lat": 37.9688891630046, "lng": 34.67691598553697, "formatted_address": "Yeni Çarşı 51100 Niğde Türkiye"}, {"lat": 38.77783011940361, "lng": 35.53600996148817, "formatted_address": "Türkiye"}, {"lat": 41.05578338565997, "lng": 29.034897474173853, "formatted_address": "Muallim Naci Cad. No: 56 Kuruçeşme 34345 Beşiktaş Türkiye"}, {"lat": 40.97973494536059, "lng": 28.817150614497073, "formatted_address": "Yeşilköy Mah. 34149 İstanbul Türkiye"}, {"lat": 38.626225757425395, "lng": 34.85289119590231, "formatted_address": "Kayseri yolu üzeri ortahisar kas. 50650 Nevşehir Türkiye"}, {"lat": 41.017881729054274, "lng": 28.965074330219732, "formatted_address": "Fetva Yokuşu Nazir Efendi Sokak No:12 / 905 Süleymaniye, İstanbul (Süleymaniye) 34200 İstanbul Türkiye"}, {"lat": 38.74288727726919, "lng": 35.48383848248977, "formatted_address": "Yeni Mahalle Kayseri Türkiye"}, {"lat": 38.69823746231124, "lng": 35.53111880776599, "formatted_address": "Talas yolu (Asık Veysel) Talas Türkiye"}, {"lat": 38.73327806714784, "lng": 35.444531349445164, "formatted_address": "Türkiye"}, {"lat": 38.716851733168205, "lng": 35.48971660190794, "formatted_address": "Türkiye"}]},
{"Ahanda": [{"lat": 37.823487539164994, "lng": 28.194632593004982, "formatted_address": "Yenipazar 09350 Aydın Türkiye"}, {"lat": 36.355179276438264, "lng": 35.826155736067435, "formatted_address": "Türkiye"}, {"lat": 39.76090590510899, "lng": 26.144283533107636, "formatted_address": "Geyikli Çanakkale Türkiye"}, {"lat": 39.922051865197915, "lng": 32.82579556409695, "formatted_address": "7.Cadde (Aşkaabat Caddesi (Eski 7. Cadde)) Ankara Türkiye"}, {"lat": 37.905180444846415, "lng": 41.135953390648524, "formatted_address": "Altın dilim karşısı bellona arasında. Batman Türkiye"}, {"lat": 41.010001876158086, "lng": 28.658977342261007, "formatted_address": "Güzelyurt Mah. 1. Cad. No:33/A 34520 Esenyurt Türkiye"}, {"lat": 38.38865005380398, "lng": 27.09709122877714, "formatted_address": "Esendere (9201. Sok. No:1) 35140 İzmir Türkiye"}, {"lat": 37.677442764141425, "lng": 31.72064524892454, "formatted_address": "Prof. Dr. Yılmaz Muslu Cd. (Mevlana Cd.) Beyşehir 42700 Beyşehir Türkiye"}, {"lat": 36.9172154361202, "lng": 34.89302272272525, "formatted_address": "Mersin Türkiye"}, {"lat": 39.933204180360875, "lng": 32.812474366696705, "formatted_address": "Alparslan Türkeş Cad. No:34 Beştepe Ankara Türkiye"}, {"lat": 38.35690346614731, "lng": 26.30446063491071, "formatted_address": "Çeşme (Dalyan) Cesme Türkiye"}]},
{"Savaştan": [{"lat": 36.88428069929408, "lng": 30.683550389716803, "formatted_address": "Konyaaltı cd. (Atatürk Parkı içi) Antalya Türkiye"}, {"lat": 38.489211738938025, "lng": 27.125593451290833, "formatted_address": "Seyirtepe 35510 İzmir Türkiye"}, {"lat": 41.01385105067868, "lng": 28.945659399032593, "formatted_address": "İskenderpaşa Mah. Ahmediye Cad. No: 44/A Fatih (Adnan Menderes Blv.) Fatih Türkiye"}, {"lat": 36.78526563584476, "lng": 34.588177318330054, "formatted_address": "Forum Mersin (Güvenevler Mah. 1. Cd. No:120-133) 33110 Mersin Türkiye"}, {"lat": 40.927586738256075, "lng": 29.310221963702723, "formatted_address": "Yenişehir Mah. Osmanlı Blv. Pendik Türkiye"}]},
{"Evlerinde Onlarla Çak": [{"lat": 38.72209928128024, "lng": 35.53726611175248, "formatted_address": "Türkiye"}, {"lat": 39.8224828512746, "lng": 34.807532932621285, "formatted_address": "Türkiye"}, {"lat": 37.96893584868016, "lng": 34.67860094129243, "formatted_address": "Perşembe Pazarı Girişi (İstasyon Cad.) 51100 Niğde Türkiye"}, {"lat": 38.68826014446061, "lng": 35.558419959682304, "formatted_address": "Kiçiköy Mahallesi (Ali Saip Paşa Caddesi) 38230 Kayseri Türkiye"}]},
{"Temmuz Milli İrade Meydanında Aksaraylı": [{"lat": 39.80695360440659, "lng": 34.80897903442383, "formatted_address": "Yozgat Çamlığı Milli Parkı 66100 Yozgat Türkiye"}, {"lat": 38.716853978014036, "lng": 35.48883855342865, "formatted_address": "Tacettin Veli Mah. İnönü Bulvarı No.72 Melikgazi Türkiye"}, {"lat": 38.64450766770486, "lng": 34.8337132082449, "formatted_address": "Kapadokya Nevşehir Türkiye"}, {"lat": 38.626244, "lng": 34.717487, "formatted_address": "Türkiye"}, {"lat": 37.858044699040796, "lng": 35.07353022889338, "formatted_address": "Niğde Türkiye"}, {"lat": 39.832485, "lng": 34.820732, "formatted_address": "66100 Türkiye"}, {"lat": 38.63028086193343, "lng": 34.71232554766031, "formatted_address": "Nevşehir Türkiye"}, {"lat": 38.654716, "lng": 34.735804, "formatted_address": "Türkiye"}, {"lat": 38.63322429777975, "lng": 34.708848947923286, "formatted_address": "Türkiye"}, {"lat": 38.629305332800676, "lng": 34.71195845989531, "formatted_address": "Türkiye"}, {"lat": 38.54669654661193, "lng": 34.513287250279994, "formatted_address": "Türkiye"}]},
{"Tiyatroda": [{"lat": 41.03451996563323, "lng": 28.979042627797654, "formatted_address": "İstiklal Cad. Halep Pasajı No:62/90 Beyoğlu Beyoğlu Türkiye"}, {"lat": 40.98326386621688, "lng": 29.03001020441469, "formatted_address": "Caferağa mh. Dr. Esat Işık Cad. No:68 Moda, Kadıköy İstanbul Türkiye"}, {"lat": 39.93871752249674, "lng": 32.85317618582469, "formatted_address": "İstiklal Cad. No:8 Ulus Ankara Türkiye"}, {"lat": 41.06195542805763, "lng": 28.993572409150236, "formatted_address": "Cevahir (19 Mayıs Mah. Büyükdere Cad. No:22) 34360 Şişli Türkiye"}, {"lat": 41.04898579117232, "lng": 28.98749576184087, "formatted_address": "Halaskargazi Cad. No:9 Harbiye İstanbul Türkiye"}, {"lat": 38.41628311653419, "lng": 27.12848424911499, "formatted_address": "Mithatpaşa Cad. No:9 SSK Blokları E-1 Blok (Haldun Dormen Sahnesi) 35260 Konak Türkiye"}, {"lat": 40.99168449494895, "lng": 29.03446558219501, "formatted_address": "Derici Zeynel sokak 8/A Kadıköy İstanbul Türkiye"}, {"lat": 36.9003432653032, "lng": 30.702677965164185, "formatted_address": "Haşim İşcan Kültür Merkezi Sahnesi (Evliya Çelebi Cd.) Muratpaşa Türkiye"}, {"lat": 39.90408983269236, "lng": 32.859762730775856, "formatted_address": "Tunus Cad. No:92 Kavaklıdere 06540 Çankaya Türkiye"}, {"lat": 39.88292256592803, "lng": 32.68282933203771, "formatted_address": "35. Cad. Çayyolu Ankara Türkiye"}, {"lat": 40.18296522443117, "lng": 29.06691938638687, "formatted_address": "Alacamescit Mah. Atatürk Cad. No:40 16030 Osmangazi Türkiye"}]},
{"Almanya'da": [{"lat": 41.007192028941645, "lng": 28.976518535657547, "formatted_address": "Sultanahmet Fatih Türkiye"}, {"lat": 41.0667675138047, "lng": 29.01679674765807, "formatted_address": "Zorlu Center İstanbul Türkiye"}, {"lat": 39.90980942424055, "lng": 32.776038723994176, "formatted_address": "Kentpark (Mustafa Kemal Mah. Dumlupınar Blv. No:164) Ankara Türkiye"}, {"lat": 39.891711523814294, "lng": 32.81240825216393, "formatted_address": "Konya Yolu (Mevlana Bulvarı) Ankara Türkiye"}, {"lat": 38.384636122638796, "lng": 27.136353294331585, "formatted_address": "5753 no:22 (karabağlar) İzmir Türkiye"}, {"lat": 37.780589697899316, "lng": 29.082466316332273, "formatted_address": "sırakapılar mah. (saltak caddesi) Denizli Türkiye"}, {"lat": 38.621325867873, "lng": 29.37225348504424, "formatted_address": "Cumhuriyet Meydanı / Bölme 64420 Uşak Türkiye"}, {"lat": 39.034595, "lng": 35.24427, "formatted_address": "Türkiye"}, {"lat": 41.0513462556155, "lng": 29.006787862918593, "formatted_address": "Üzengi Sokak, No: 1/A 34349 İstanbul Türkiye"}, {"lat": 39.50057867632039, "lng": 26.933534718020955, "formatted_address": "Ören Mahallesi Burhaniye Türkiye"}, {"lat": 41.051708092686546, "lng": 28.992918712102092, "formatted_address": "Akkavak Sok. Nişantaşı (Fatih Caddesi) İstanbul Türkiye"}]},
{"Atatürk Düşmanları EVET Cephesinde": [{"lat": 38.94279125250879, "lng": 34.56051003339276, "formatted_address": "Hacıbektaş Türkiye"}, {"lat": 38.73482309970367, "lng": 35.422421784303005, "formatted_address": "Keykubat Mah. Kayseri Türkiye"}, {"lat": 38.733614506956016, "lng": 35.423685043536786, "formatted_address": "Belsin Kayseri Türkiye"}, {"lat": 38.7190388111909, "lng": 35.490458607673645, "formatted_address": "Cumhuriyet Mh. (Tennuri Cd.) 38010 Kayseri Türkiye"}, {"lat": 38.62476, "lng": 34.71355, "formatted_address": "Türkiye"}, {"lat": 38.62512395528648, "lng": 34.71512184140541, "formatted_address": "Türkiye"}, {"lat": 39.246113, "lng": 35.513485, "formatted_address": "Türkiye"}, {"lat": 38.6937701574156, "lng": 35.5466999789977, "formatted_address": "Yukarı Mah. Talas Türkiye"}, {"lat": 39.77542914704415, "lng": 34.7969627380371, "formatted_address": "Yozgat Türkiye"}, {"lat": 38.744460528561326, "lng": 35.47530134825855, "formatted_address": "Erkilet Bulvarı Şirinevler Mh No 1 Kocasinan, Kayseri 38090 Kayseri Türkiye"}, {"lat": 37.97129675273119, "lng": 34.67641373275858, "formatted_address": "Türkiye"}]},
{"Paul Boese": [{"lat": 39.034595, "lng": 35.24427, "formatted_address": "Türkiye"}, {"lat": 38.720387907130075, "lng": 35.48164009565618, "formatted_address": "Türkiye"}, {"lat": 39.66234350550647, "lng": 35.87244980954127, "formatted_address": "Türkiye"}, {"lat": 38.72489989944463, "lng": 35.49887791811716, "formatted_address": "Forum Avm Karşısı Beyazsaray Apt. Sivas Caddesi Kat 1 No 8 (Sivas Caddesi) Kayseri Türkiye"}, {"lat": 37.9650513930987, "lng": 34.67267104763458, "formatted_address": "Doktor Sami Yavuz Caddesi (Yeşilburç Yolu) Niğde Türkiye"}]},
{"Hayır": [{"lat": 40.81698342423953, "lng": 29.297571996617048, "formatted_address": "Postane Mh. Manastır Yolu Cd. No:6 34903 Tuzla Türkiye"}, {"lat": 41.01768346439643, "lng": 28.590617624455092, "formatted_address": "Gazi Mustafa Kemal Cad. Büyükçekmece (Büyükçekmece Şubesi) 34500 Büyükçekmece Türkiye"}, {"lat": 38.719651461203725, "lng": 35.482645691172436, "formatted_address": "Düvenönü (Gülük) Kayseri Türkiye"}, {"lat": 38.71963055403115, "lng": 35.482645691172436, "formatted_address": "Güllüce Sokak Düvenönü İş Merkezi No: 7 Kayseri Türkiye"}, {"lat": 37.04430182095377, "lng": 35.30998862745397, "formatted_address": "Güzelyalı Mh. Turgut Özal Blv. 81101 Sk. 01170 Adana Türkiye"}, {"lat": 41.034111494765284, "lng": 28.978815233800894, "formatted_address": "34400 Beyoğlu Türkiye"}, {"lat": 40.96547559836378, "lng": 28.79750493810095, "formatted_address": "Aqua Florya (Şenlikköy Mah. Yeşilköy Halkalı Cad. No:93) Bakırköy Türkiye"}, {"lat": 38.41839816717806, "lng": 27.131573764517192, "formatted_address": "Kemeraltı Çarşısı Konak Türkiye"}, {"lat": 41.168584550965285, "lng": 29.0577122179259, "formatted_address": "Merkez Mah. Cami Arkası Sok. No:5 (Balıkçılar Limanı) Sarıyer İstanbul Türkiye"}, {"lat": 39.77992246104363, "lng": 30.514379149339856, "formatted_address": "Hoşnudiye Mah. Vural Sok. No:60 26000 Eskişehir Türkiye"}, {"lat": 40.22458574151557, "lng": 28.848389712841435, "formatted_address": "Dumlupınar Mah. Atatürk Cad. No:110/A 16285 Nilüfer Türkiye"}]},
{"Atatürk'e": [{"lat": 38.94279125250879, "lng": 34.56051003339276, "formatted_address": "Hacıbektaş Türkiye"}, {"lat": 38.7190388111909, "lng": 35.490458607673645, "formatted_address": "Cumhuriyet Mh. (Tennuri Cd.) 38010 Kayseri Türkiye"}, {"lat": 40.908082254424485, "lng": 29.31550853491538, "formatted_address": "34912 İstanbul Türkiye"}, {"lat": 40.97900814710599, "lng": 29.02363947119812, "formatted_address": "Türkiye"}, {"lat": 37.95643976061005, "lng": 34.66667593322237, "formatted_address": "Türkiye"}, {"lat": 38.959815979003906, "lng": 35.25025939941406, "formatted_address": "Türkiye"}, {"lat": 37.867578296046055, "lng": 32.48512387275696, "formatted_address": "Konya Türkiye"}, {"lat": 41.01529843233785, "lng": 28.95847917235722, "formatted_address": "Mollahüsrev Mah. Katip Çelebi Cad. No:104/1 Vefa 34134 Fatih Türkiye"}, {"lat": 39.764501325134475, "lng": 30.52444909261872, "formatted_address": "Eskişehir Türkiye"}, {"lat": 38.39329646061927, "lng": 26.748583207541095, "formatted_address": "Urla Türkiye"}, {"lat": 38.465528900628975, "lng": 27.20625266202757, "formatted_address": "Bornova otobani çıkışı (Bornova) İzmir Türkiye"}]},
{"Rabb'e": [{"lat": 41.010264667151645, "lng": 28.97099018096924, "formatted_address": "Beyazıt Mah. Nuruosmaniye Cad. Fatih Türkiye"}, {"lat": 41.046694060175355, "lng": 28.931259804996078, "formatted_address": "Eyüp Türkiye"}, {"lat": 38.73628, "lng": 35.482662, "formatted_address": "Mevlana (Barış Manço Cad) 38090 Kayseri Türkiye"}]},
{"sırasende": []},
{"Türkiye'de": [{"lat": 41.12121436211786, "lng": 29.038903713226315, "formatted_address": "Poligon Mah.Sarıyer Cad:105/c (Sarıyer Cad.) Sarıyer Türkiye"}, {"lat": 38.29172390955387, "lng": 27.1498640561956, "formatted_address": "35410 Gaziemir Türkiye"}, {"lat": 41.094980211898054, "lng": 29.099706709384918, "formatted_address": "Rüzgarlıbahçe Mah. Cumhuriyet Cad. No:2 Kavacık 34805 Beykoz Türkiye"}, {"lat": 37.07004994830122, "lng": 37.36682427969062, "formatted_address": "İncili Pınar Mh. Gazi Muhtar Paşa Blv. No:3 Şehitkamil Gaziantep Türkiye"}, {"lat": 41.06218319455098, "lng": 29.00935692902006, "formatted_address": "Hoşsohbet Sok. Panorama Selenium Residence Gayrettepe 34349 İstanbul Türkiye"}, {"lat": 41.03363674457945, "lng": 28.97703017929091, "formatted_address": "Asmalı Mescit Mah. Meşrutiyet Cad. No:3 Galatasaray (İstiklal Cad.) 34440 Beyoğlu Türkiye"}, {"lat": 41.071429567180054, "lng": 28.921933500949738, "formatted_address": "Vialand (Yeşilpınar Mah. Şehit Metin Kaya Sok. No:11) 34065 Istanbul Türkiye"}, {"lat": 41.0647152, "lng": 29.0182192, "formatted_address": "Zorlu Center (Levazım Mah. Koru Sok. No:2) 34340 Beşiktaş Türkiye"}, {"lat": 37.10478631083022, "lng": 27.283016586482553, "formatted_address": "Palmarina (Merkez Mah. Çökertme Cad. Yalıkavak) 48400 Muğla Türkiye"}, {"lat": 36.57073930196682, "lng": 29.14144080017622, "formatted_address": "Türkiye"}, {"lat": 39.0, "lng": 35.0, "formatted_address": "Türkiye"}]},
{"Çalışanın": [{"lat": 38.45803204155217, "lng": 27.096533899627122, "formatted_address": "Bostanlı İzmir Türkiye"}, {"lat": 38.27735392614249, "lng": 26.375557706714527, "formatted_address": "Hacı Memiş Mahallesi 2070 Sokak No:17 Alaçatı - İzmir (Alaçatı) 35937 İzmir Türkiye"}, {"lat": 41.013430974053556, "lng": 28.597279376174647, "formatted_address": "Kordonboyu Caddesi 34522 İstanbul Türkiye"}, {"lat": 40.839279587027406, "lng": 31.161077676732145, "formatted_address": "Spor Sokak Düzce Türkiye"}, {"lat": 41.00687999278633, "lng": 28.933596980074377, "formatted_address": "Türkiye"}, {"lat": 41.02878640944389, "lng": 28.974744824603096, "formatted_address": "Şahkulu Mah. İstiklal Cad. No: 251 34421 Beyoğlu Türkiye"}, {"lat": 41.00669832923409, "lng": 28.940842151641846, "formatted_address": "Hobyar Mah. Güzel Sebzeci Sok. No:34 İstanbul Türkiye"}, {"lat": 40.87928892930588, "lng": 29.072163105010986, "formatted_address": "Adalar Su Sporları Kulübü Derneği Fener Burnu Mevki No:54 Burgazada 34975 Adalar, Istanbul Türkiye"}, {"lat": 40.551992668316, "lng": 34.95607490599929, "formatted_address": "Karakeçeli Mh. 1. Sk. No:19 19030 Çorum Türkiye"}, {"lat": 36.72965441457905, "lng": 27.68933119649344, "formatted_address": "Iskele Mah. 85. Sokak 48900 Datça Türkiye"}, {"lat": 39.9419232983239, "lng": 32.85707529615512, "formatted_address": "Hacibayram Ankara Türkiye"}]},
{"Türkiye": [{"lat": 41.039362775881784, "lng": 28.986296320452443, "formatted_address": "Taksim Meydanı 34400 Beyoğlu Türkiye"}, {"lat": 41.103398674263026, "lng": 28.99088144302368, "formatted_address": "Seyrantepe (Ali Sami Yen Spor Kompleksi) 34396 Şişli Türkiye"}, {"lat": 41.0589042953736, "lng": 28.949359198063334, "formatted_address": "Sütlüce Mh İmrahor Cd Beyoğlu 34445 İstanbul Türkiye"}, {"lat": 40.98768134935173, "lng": 29.036929607391354, "formatted_address": "Zühtüpaşa Mah. Recep Peker Cad. 34200 Kadıköy Türkiye"}, {"lat": 38.307912095992265, "lng": 26.369637599710767, "formatted_address": "Ilıca Çeşme Türkiye"}, {"lat": 37.07245011559636, "lng": 27.244678467093994, "formatted_address": "Koyunbaba Mah. Kazım Karabekir Cad. No: 71 Muğla Türkiye"}, {"lat": 39.0, "lng": 35.0, "formatted_address": "Türkiye"}, {"lat": 40.97973494536059, "lng": 28.817150614497073, "formatted_address": "Yeşilköy Mah. 34149 İstanbul Türkiye"}, {"lat": 40.729812179643474, "lng": 30.37983503317119, "formatted_address": "Hanlı Köy Mah. Hürriyet Cad. No:3 54100 Arifiye Türkiye"}, {"lat": 40.908082254424485, "lng": 29.31550853491538, "formatted_address": "34912 İstanbul Türkiye"}, {"lat": 38.70996280146297, "lng": 34.83488837466427, "formatted_address": "Avanos Avanos Türkiye"}]},
{"Arda'ya": [{"lat": 41.02375297570776, "lng": 28.977200726791924, "formatted_address": "Necatibey Cad. No:38 Karaköy 34425 Karaköy Türkiye"}, {"lat": 36.616753149586586, "lng": 29.076052319562166, "formatted_address": "Hillside Beach Club (Kalemya Koyu, Fethiye) 48300 Muğla Türkiye"}, {"lat": 38.421229738562374, "lng": 27.13383141683864, "formatted_address": "İzmir Türkiye"}, {"lat": 41.023631898852685, "lng": 28.97696196023775, "formatted_address": "The Haze Hotel Teras Türkiye"}, {"lat": 40.65683780631294, "lng": 29.268762343373748, "formatted_address": "Türkiye"}, {"lat": 39.91738635125435, "lng": 32.81752098194195, "formatted_address": "Emek Mah (8. Cadde) Ankara Türkiye"}, {"lat": 38.43489396746629, "lng": 27.14579139037612, "formatted_address": "Şair Eşref Blv. Alsancak İzmir Türkiye"}, {"lat": 40.92124528265978, "lng": 29.157102123443902, "formatted_address": "Cevizli Mah. Zuhal Cad. No:59 34890 İstanbul Türkiye"}, {"lat": 37.01656591777881, "lng": 37.97053177365706, "formatted_address": "Sahil yolu ogretmen evi karsisi Birecik Türkiye"}, {"lat": 41.02124322389844, "lng": 28.94579976070868, "formatted_address": "Fevzipaşa Cd. Fatih (Fevzipaşa Caddesi) İstanbul Türkiye"}, {"lat": 36.885316627047686, "lng": 30.699895265830953, "formatted_address": "Kaleiçi Muratpaşa Türkiye"}]},
{"Evde": [{"lat": 41.04704370428977, "lng": 28.897039769345852, "formatted_address": "Kocatepe Mah. Paşa Cad. No:3-5 34045 Bayrampaşa Türkiye"}, {"lat": 39.189316006450476, "lng": 35.244622147963696, "formatted_address": "Türkiye Türkiye"}, {"lat": 41.03835851545276, "lng": 28.881892290578662, "formatted_address": "Esenler Dörtyol Meydan 34200 İstanbul Türkiye"}, {"lat": 41.0209665700159, "lng": 29.004013538360596, "formatted_address": "Salacak Mevkii (İstanbul Boğazı) Üsküdar Türkiye"}, {"lat": 38.39043412700886, "lng": 26.99989806286359, "formatted_address": "Narlıdere Türkiye"}, {"lat": 38.431351, "lng": 27.135907, "formatted_address": "Atatürk Cad. No:188/B Konak Türkiye"}, {"lat": 41.31778446219575, "lng": 36.32208069091887, "formatted_address": "Atakum 55400 Samsun Türkiye"}, {"lat": 40.208933964267615, "lng": 29.023025035858154, "formatted_address": "Kükürtlü Mah. Cevizli Sok. No:4/55 16080 Osmangazi Türkiye"}, {"lat": 40.75108445427532, "lng": 29.807859844713835, "formatted_address": "60 Evler 41780 Derince Türkiye"}, {"lat": 40.73824287051315, "lng": 30.300678051999206, "formatted_address": "Sakarya Türkiye"}, {"lat": 36.408187202834284, "lng": 34.07950574602507, "formatted_address": "Atakent 46030 Silifke Türkiye"}]},
{"Ankara Üniversitesi'nde": [{"lat": 39.21106061830917, "lng": 35.02214128586023, "formatted_address": "Sıhhiye Ankara Türkiye"}, {"lat": 38.785541422206336, "lng": 35.246113444745944, "formatted_address": "Türkiye"}, {"lat": 38.97352546668148, "lng": 34.98754886472235, "formatted_address": "Türkiye"}, {"lat": 38.98011102345266, "lng": 34.83840299608619, "formatted_address": "Türkiye"}, {"lat": 38.98019676060069, "lng": 34.96848738415044, "formatted_address": "Türkiye Çallıgedik Türkiye"}, {"lat": 38.98086062989596, "lng": 34.940102462798315, "formatted_address": "Türkiye"}, {"lat": 39.0169666750132, "lng": 34.831573070072544, "formatted_address": "Türkiye"}, {"lat": 38.98083202235613, "lng": 34.90741545748682, "formatted_address": "Türkiye"}]},
{"@akgencistanbul Suriye": [{"lat": 39.061415, "lng": 35.124582, "formatted_address": "Türkiye"}, {"lat": 39.034595, "lng": 35.24427, "formatted_address": "Türkiye"}]},
{"El Bab, Başköy": [{"lat": 38.72724475600214, "lng": 35.493947087088046, "formatted_address": "Serceonu Mah. CAnkaya Cad. Erciyes Sitesi E Blok No:21/A Kayseri Türkiye"}, {"lat": 38.599214043518856, "lng": 34.84996318817139, "formatted_address": "ibrahimpaşa köyü, tarihi köprü yanı no:44 Ürgüp (göreme, ortahisar, uçhisar yakınları) 50400 Nevşehir Türkiye"}, {"lat": 38.61867572473837, "lng": 34.804016027124305, "formatted_address": "Nevşehir Türkiye"}, {"lat": 38.642157514143655, "lng": 34.829955801634455, "formatted_address": "Gaferli Mah. Manav Çıkmazı No:28 Göreme Tarihi Milli Parkı Türkiye"}, {"lat": 38.73392285276442, "lng": 35.527456931018456, "formatted_address": "Erciyesevler Mah. Levent Çetinkaya Sok. Apt No:13 (Büyük Beğendik Karşısı Ziraat Bankası Arkası) Kayseri Türkiye"}, {"lat": 38.71904758501324, "lng": 34.84111433064277, "formatted_address": "Türkiye"}, {"lat": 39.33597056999259, "lng": 33.84602658906799, "formatted_address": "Türkiye"}, {"lat": 38.39353676790734, "lng": 34.93332915622227, "formatted_address": "Yeşilhisar Türkiye"}, {"lat": 38.75446814907699, "lng": 35.34440450017852, "formatted_address": "Bogazkopru Kayseri Türkiye"}, {"lat": 38.18735584994324, "lng": 35.13897230309859, "formatted_address": "Türkiye"}, {"lat": 38.643065193365146, "lng": 34.838295187763485, "formatted_address": "Ortayazı Türkiye"}]},
{"Ps": [{"lat": 38.400965922690325, "lng": 27.114792830105493, "formatted_address": "Bahçelievler Mah. 370 Sok. No:1/B 35150 Karabağlar Türkiye"}, {"lat": 39.90435134627616, "lng": 41.26784820566416, "formatted_address": "25050 Erzurum Türkiye"}, {"lat": 40.98841022548921, "lng": 29.026538729667667, "formatted_address": "Caferağa Mah. Sakız Sok. No.8/B Kadıköy Kadıköy Türkiye"}, {"lat": 38.46337973051728, "lng": 27.16770471030993, "formatted_address": "1921 Sokak No:22/A (Bayraklı) İzmir Türkiye"}, {"lat": 37.884655399220364, "lng": 32.49082881718437, "formatted_address": "Feritpaşa Mh. Nişantaş Sk. Selek2 Apt. Altı No:24 (Ahmet Hilmi Nalçacı Cad.) 42060 Konya Türkiye"}, {"lat": 40.97851426635775, "lng": 28.718914983441472, "formatted_address": "Türkiye"}, {"lat": 40.7734033470532, "lng": 30.399100398958414, "formatted_address": "Semerciler Mah. Küçük Sok. No:7/A (Final Dergisi Dershanesi Karşısı) Adapazarı Türkiye"}, {"lat": 41.067238142034576, "lng": 28.997369481491457, "formatted_address": "Mecidiye caddesi cansizoglu is merkezi (7/36) 34360 Mecidiyekoy Türkiye"}, {"lat": 41.080371758297396, "lng": 29.03392003269196, "formatted_address": "Nispetiye Cad. No:100 Beşiktaş 34337 Istanbul Türkiye"}, {"lat": 40.730841942236424, "lng": 31.605748243562246, "formatted_address": "izzet Baysal Caddesi Bolu Türkiye"}, {"lat": 41.03031989421483, "lng": 37.50122138146746, "formatted_address": "Türkiye"}]},
{"Aşşırı": [{"lat": 39.95613539335678, "lng": 26.24789434662078, "formatted_address": "tevfikiye koyu (troya harabeleri girisi) 17120 canakkale Türkiye"}, {"lat": 41.078609219479226, "lng": 29.011783861319536, "formatted_address": "Park Dedeman Levent Hotel (Esentepe Mah. Büyükdere Cad. No: 187) 34394 Levent Türkiye"}, {"lat": 40.98180911156648, "lng": 29.025003432775787, "formatted_address": "Yusuf Kamil Paşa Sk No:5 Moda, Kadıköy 34710 İstanbul Türkiye"}, {"lat": 38.28074301458161, "lng": 26.37402437275852, "formatted_address": "Hacımemiş Mahallesi (2002 Sok) 35000 İzmir Türkiye"}, {"lat": 41.0257120278586, "lng": 29.12514743905622, "formatted_address": "Meydan İstanbul (FSM Mah. Balkan Cad. No: 64 Tepeüstü, Ümraniye) 34771 İstanbul Türkiye"}, {"lat": 40.96582262840555, "lng": 29.066729102327386, "formatted_address": "İskele Sok. No:14 Caddebostan 34728 Kadıköy Türkiye"}, {"lat": 41.043899769613695, "lng": 29.002610196978786, "formatted_address": "Şair Veysi Sk No:4 Beşiktaş (İhlamurdere caddesi) İstanbul Türkiye"}, {"lat": 40.877732127214735, "lng": 29.10033772768576, "formatted_address": "Heybeliada Adalar Türkiye"}, {"lat": 40.86830954026858, "lng": 29.238494274274387, "formatted_address": "Batı Mahallesi Pendik Türkiye"}, {"lat": 37.02498641790439, "lng": 27.39173896021512, "formatted_address": "Asarlık Mevkii, Gümbet 48000 Muğla Türkiye"}]},
{"ÇokÖzlendi": []},
{"Türkiye Buz Hokeyinde": [{"lat": 39.0, "lng": 35.0, "formatted_address": "Türkiye"}]},
{"Spark": [{"lat": 36.89182443694065, "lng": 30.75249204792986, "formatted_address": "Antalya Türkiye"}, {"lat": 38.401733209941135, "lng": 27.13018354389502, "formatted_address": "Türkiye"}, {"lat": 41.041673637874545, "lng": 29.009999188837423, "formatted_address": "Çırağan Cad. Osman Paşa Mektebi Sok. No:4/4 Beşiktaş Türkiye"}]},
{"Rte,Referandum'da Hayır": [{"lat": 38.719651461203725, "lng": 35.482645691172436, "formatted_address": "Düvenönü (Gülük) Kayseri Türkiye"}, {"lat": 38.71963055403115, "lng": 35.482645691172436, "formatted_address": "Güllüce Sokak Düvenönü İş Merkezi No: 7 Kayseri Türkiye"}, {"lat": 38.96337631495337, "lng": 35.00608958548127, "formatted_address": "Türkiye"}, {"lat": 37.97113834679755, "lng": 34.68455742870646, "formatted_address": "51100 Niğde Türkiye"}, {"lat": 38.700992084348336, "lng": 35.537581482587555, "formatted_address": "Yenidoğan Mah. Çimenli Cad. Talas Kayseri Türkiye"}, {"lat": 38.72717065879627, "lng": 35.50673961639404, "formatted_address": "Kayseri Türkiye"}, {"lat": 38.72321425424687, "lng": 35.47209701705228, "formatted_address": "Eski Sanayi Sitesi Kayseri Türkiye"}, {"lat": 38.730004849324494, "lng": 35.480634487700115, "formatted_address": "Kayseri Türkiye"}, {"lat": 38.241557853337056, "lng": 34.95472944950737, "formatted_address": "Türkiye"}, {"lat": 38.72592503693732, "lng": 35.50286728674716, "formatted_address": "Sivas Cad. 38050 Kayseri Türkiye"}, {"lat": 38.68301159740688, "lng": 35.52427604242564, "formatted_address": "Erenkoy Mahallesi Türkiye"}]},
{"Liginde": [{"lat": 41.103398674263026, "lng": 28.99088144302368, "formatted_address": "Seyrantepe (Ali Sami Yen Spor Kompleksi) 34396 Şişli Türkiye"}, {"lat": 39.776680117885604, "lng": 30.51536312633094, "formatted_address": "Adalar Eskişehir Türkiye"}, {"lat": 41.05010258426778, "lng": 29.236922254871082, "formatted_address": "Türkiye"}, {"lat": 37.973187040405215, "lng": 34.68623143559757, "formatted_address": "Türkiye"}, {"lat": 39.78558939132988, "lng": 30.492268594483477, "formatted_address": "Uluönder Mah. Cansen Sok. No:5 Eskişehir Türkiye"}, {"lat": 40.99026164872523, "lng": 29.02952146886722, "formatted_address": "Kuşdili Caddesi No:3 K:5-6 Kadıköy (Altıyol) 34730 İstanbul Türkiye"}, {"lat": 38.773147151624926, "lng": 30.50855947328462, "formatted_address": "Afyonkarahisar Türkiye"}, {"lat": 38.67105788594754, "lng": 29.328122935444227, "formatted_address": "1 Eylül Kampüsü Uşak Türkiye"}, {"lat": 40.99279491244779, "lng": 28.786833103377415, "formatted_address": "Yeşilova mahallesi reyhan caddesi İstanbul Türkiye"}, {"lat": 40.76279612336697, "lng": 29.854316711425785, "formatted_address": "Çınarlı Mh. D 100 Karayolu Yanyolu Derince (Çenesuyu kaşık) 41900 İzmit Türkiye"}, {"lat": 40.98768134935173, "lng": 29.036929607391354, "formatted_address": "Zühtüpaşa Mah. Recep Peker Cad. 34200 Kadıköy Türkiye"}]},
{"Şubat'ta": [{"lat": 37.969331956299754, "lng": 34.671833916969604, "formatted_address": "Niğde Türkiye"}, {"lat": 37.967364, "lng": 34.684411, "formatted_address": "Çayır Mahallesi İstasyon Caddesi 51100 Niğde Türkiye"}, {"lat": 41.031543685967115, "lng": 29.02155940644701, "formatted_address": "Eski Tekel binasi İstanbul Türkiye"}, {"lat": 39.7811072602521, "lng": 30.510870506816424, "formatted_address": "İsmet İnönü Cad. Eskişehir Türkiye"}, {"lat": 41.67581941455026, "lng": 26.55401909215455, "formatted_address": "Tahmis Meydanı Oral İş Merkezi, PTT Arkası 22100 Edirne Türkiye"}, {"lat": 38.45194852646215, "lng": 27.184153953456455, "formatted_address": "286/4 Sok. No:2/A Bayraklı Türkiye"}, {"lat": 37.96520936696659, "lng": 34.686798430580275, "formatted_address": "Türkiye"}, {"lat": 37.96695052139188, "lng": 34.68323440032196, "formatted_address": "Türkiye"}, {"lat": 37.96501032938353, "lng": 34.690265118987476, "formatted_address": "Türkiye"}, {"lat": 41.05007414451848, "lng": 29.052365346833966, "formatted_address": "Çengelköy Mah. Pazar Kayığı Sok. No:7 34680 Üsküdar Türkiye"}, {"lat": 38.38130103639156, "lng": 26.912108673452863, "formatted_address": "Mithatpaşa Cad. Maltepe Mah. No:20 Güzelbahçe / İZMİR (Mithatpaşa Caddesi) Güzelbahçe Türkiye"}]},
{"El Bab'da": [{"lat": 38.72724475600214, "lng": 35.493947087088046, "formatted_address": "Serceonu Mah. CAnkaya Cad. Erciyes Sitesi E Blok No:21/A Kayseri Türkiye"}, {"lat": 38.599214043518856, "lng": 34.84996318817139, "formatted_address": "ibrahimpaşa köyü, tarihi köprü yanı no:44 Ürgüp (göreme, ortahisar, uçhisar yakınları) 50400 Nevşehir Türkiye"}, {"lat": 38.61867572473837, "lng": 34.804016027124305, "formatted_address": "Nevşehir Türkiye"}, {"lat": 38.642157514143655, "lng": 34.829955801634455, "formatted_address": "Gaferli Mah. Manav Çıkmazı No:28 Göreme Tarihi Milli Parkı Türkiye"}, {"lat": 38.73392285276442, "lng": 35.527456931018456, "formatted_address": "Erciyesevler Mah. Levent Çetinkaya Sok. Apt No:13 (Büyük Beğendik Karşısı Ziraat Bankası Arkası) Kayseri Türkiye"}, {"lat": 38.71904758501324, "lng": 34.84111433064277, "formatted_address": "Türkiye"}, {"lat": 38.75446814907699, "lng": 35.34440450017852, "formatted_address": "Bogazkopru Kayseri Türkiye"}, {"lat": 38.643065193365146, "lng": 34.838295187763485, "formatted_address": "Ortayazı Türkiye"}, {"lat": 38.6422580207024, "lng": 34.8299611925801, "formatted_address": "Türkiye"}, {"lat": 38.714675155756446, "lng": 35.34465096489737, "formatted_address": "Organize Sanayi Bölgesi 28.cadde 16 Numara Türkiye"}, {"lat": 38.71482541526885, "lng": 35.34495636580559, "formatted_address": "Türkiye"}]},
{"Ağrı'da Murat Mahallesi'nde": [{"lat": 38.74467070206821, "lng": 35.47572394679146, "formatted_address": "Kayseri Türkiye"}, {"lat": 38.61541686049746, "lng": 34.696042623867534, "formatted_address": "Türkiye"}, {"lat": 38.69411248647446, "lng": 35.531215030032186, "formatted_address": "Türkiye"}, {"lat": 38.72451435845278, "lng": 35.49321438924887, "formatted_address": "Kayseri Türkiye"}, {"lat": 38.91682943580416, "lng": 35.09131572090814, "formatted_address": "Himmetdede Türkiye"}, {"lat": 38.724718279728535, "lng": 35.49311277369816, "formatted_address": "Serçeönü mah. Özal plaza (Ahmetpaşa) 38040 Kayseri Türkiye"}, {"lat": 38.737100575191, "lng": 35.43539067264099, "formatted_address": "Türkiye"}, {"lat": 38.718722, "lng": 35.489615, "formatted_address": "Türkiye"}, {"lat": 38.624435428248944, "lng": 35.18141048704468, "formatted_address": "Türkiye"}, {"lat": 38.7199184461705, "lng": 35.500188121125255, "formatted_address": "Türkiye"}, {"lat": 38.72314795599229, "lng": 35.4816775382654, "formatted_address": "Gevhernesibe Mh. Atatürk Bulv. No: 34, Kocasinan (Hastane Caddesi) Kayseri Türkiye"}]},
{"İstanbul’da": [{"lat": 41.02294161769885, "lng": 28.97747039794922, "formatted_address": "Rıhtım Cad. No:3-4 Karaköy 34425 Beyoğlu Türkiye"}, {"lat": 41.01209006569509, "lng": 28.97857078488077, "formatted_address": "Hoca Paşa Mah. Nöbethane Cad. No:1 Gülhane 34100 Fatih Türkiye"}, {"lat": 41.06536292778856, "lng": 29.008117871525084, "formatted_address": "Yıldız Posta Cad. Sinan Pasajı No:38/26 Gayrettepe 34349 İstanbul Türkiye"}, {"lat": 38.64393565561302, "lng": 34.830295430545654, "formatted_address": "El Sanatları Çarşısı Göreme Tarihi Milli Parkı Türkiye"}, {"lat": 40.93923587819894, "lng": 29.133944595583927, "formatted_address": "Altayçeşme Mah. Zuhal Sok. No:22 Maltepe (Niyazibey İş Merkezi, No:1) 34840 İstanbul Türkiye"}, {"lat": 38.725420082539806, "lng": 35.501193487053754, "formatted_address": "Sivas Cad. Pilavcılar Apt. (Akbank Yanı) Kayseri Türkiye"}, {"lat": 41.109085115369126, "lng": 29.053649503379965, "formatted_address": "Emirgan Sarıyer Türkiye"}, {"lat": 38.66752527858202, "lng": 34.73828764257794, "formatted_address": "2000 Evler Mah. (Zübeyde Hanım Cad.) Nevşehir Türkiye"}, {"lat": 37.06342420478349, "lng": 37.385007441043854, "formatted_address": "Eski Hal Civarı, Uzun Çarşı No:14 27400 Gaziantep Türkiye"}, {"lat": 38.62123528550925, "lng": 34.86484965276789, "formatted_address": "kale Cad. ORTAHISAR Nevşehir Türkiye"}, {"lat": 37.96523300631392, "lng": 34.67199594289176, "formatted_address": "Saruhan Mah (kahverengi arkasi) 51100 Niğde Türkiye"}]}
]